NAME,OUTLET TYPE,STREET ADDRESS,PHONE NUMBER,PAYMENTS ACCEPTED,FARE MEDIA AVAILABLE,LAT,LON,CITY,Location,Boundaries - ZIP Codes,Community Areas,Zip Codes,Census Tracts,Wards,:@computed_region_awaf_s7ux
103rd & Halsted Currency,Currency Exchange,801 W. 103rd Street,773-233-6068,Varies,Purchase Transit Cards and Passes.,41.706917,-87.642894,Chicago,"{'latitude': '41.7074594230005', 'longitude': '-87.60387686299964', 'human_address': '{""address"": ""801 103rd Street"", ""city"": ""Chicago"", ""state"": ""IL"", ""zip"": ""60628""}'}",19,47,21861,254,43,30
103rd & Michigan Currency,Currency Exchange,10251 S. Michigan Avenue,773-928-1850,Varies,Purchase Transit Cards and Passes.,41.707496,-87.620166,Chicago,"{'latitude': '41.70753026000045', 'longitude': '-87.62015057599967', 'human_address': '{""address"": ""10251 Michigan Avenue"", ""city"": ""Chicago"", ""state"": ""IL"", ""zip"": ""60628""}'}",19,45,21861,570,43,30
103rd & Western C E,Ventra Retail Location,10257 South Western Ave,,Varies,Varies,41.7068154,-87.6430502,Chicago,"{'latitude': '41.70664159500046', 'longitude': '-87.68159527099965', 'human_address': '{""address"": ""10257 Western Ave"", ""city"": ""Chicago"", ""state"": """", ""zip"": ""60643""}'}",13,71,22212,629,42,33
#10 Check Agencies,Ventra Retail Location,6321 South King Drive,,Varies,Varies,41.7796,-87.615267,Chicago ,"{'latitude': '41.779580173000454', 'longitude': '-87.61562095399967', 'human_address': '{""address"": ""6321 King Drive"", ""city"": ""Chicago"", ""state"": """", ""zip"": ""60637""}'}",60,67,22260,122,4,53
10 Check Currency,Currency Exchange,6321 S. King Drive,773-493-2769,Varies,Purchase Transit Cards and Passes.,41.7795,-87.615608,Chicago,"{'latitude': '41.779580173000454', 'longitude': '-87.61562095399967', 'human_address': '{""address"": ""6321 King Drive"", ""city"": ""Chicago"", ""state"": ""IL"", ""zip"": ""60637""}'}",60,67,22260,122,4,53
110th & Halsted C E,Ventra Retail Location,11057 South Halsted,,Varies,Varies,41.692498,-87.642,Chicago ,"{'latitude': '41.69259085400046', 'longitude': '-87.62300715199967', 'human_address': '{""address"": ""11057 Halsted"", ""city"": ""Chicago"", ""state"": """", ""zip"": ""60628""}'}",19,45,21861,237,43,30
110th & Halsted Currency,Currency Exchange,11057 S. Halsted Street,773-785-7404,Varies,"Purchase Chicago Cards, Transit Cards and Passes.",41.692504,-87.642382,Chicago,"{'latitude': '41.692490671000485', 'longitude': '-87.64232048899964', 'human_address': '{""address"": ""11057 Halsted Street"", ""city"": ""Chicago"", ""state"": ""IL"", ""zip"": ""60628""}'}",19,45,21861,525,22,45
111th & Michigan Currency,Currency Exchange,11055 S. Michigan Avenue,773-264-2433,Varies,Purchase Transit Cards and Passes.,41.692788,-87.62105,Chicago,"{'latitude': '41.69284096400048', 'longitude': '-87.62103091999967', 'human_address': '{""address"": ""11055 Michigan Avenue"", ""city"": ""Chicago"", ""state"": ""IL"", ""zip"": ""60628""}'}",19,45,21861,237,43,30
"111th & Michigan Currency Exchange, Inc.",Ventra Retail Location,11055 S Michigan,,Varies,Varies,41.692984,-87.620548,Chicago,"{'latitude': '41.69259085400046', 'longitude': '-87.62300715199967', 'human_address': '{""address"": ""11055 Michigan"", ""city"": ""Chicago"", ""state"": """", ""zip"": ""60628""}'}",19,45,21861,237,43,30
111th & Western Currency,Currency Exchange,11230 1/2 S. Western Avenue,773-233-3610,Varies,"Purchase Chicago Cards, Transit Cards and Passes.",41.688905,-87.681065,Chicago,"{'latitude': '41.88106288000046', 'longitude': '-87.68645005999969', 'human_address': '{""address"": ""11230 1 2 S Western Avenue"", ""city"": ""Chicago"", ""state"": ""IL"", ""zip"": ""60643""}'}",28,29,21184,785,46,48
112th & Vincennes Currency,Currency Exchange,11207 S. Vincennes,773-239-1700,Varies,"Purchase Chicago Cards, Transit Cards and Passes.",41.689846,-87.664797,Chicago,"{'latitude': '41.699751422000475', 'longitude': '-87.66459754499965', 'human_address': '{""address"": ""11207 Vincennes"", ""city"": ""Chicago"", ""state"": ""IL"", ""zip"": ""60643""}'}",13,71,22212,630,42,33
115th & Michigan Currency,Currency Exchange,100 E. 115th Street,773-264-0601,Varies,Purchase Transit Cards and Passes.,41.685347,-87.620667,Chicago,"{'latitude': '41.6853269930005', 'longitude': '-87.62546000099968', 'human_address': '{""address"": ""100 115th Street"", ""city"": ""Chicago"", ""state"": ""IL"", ""zip"": ""60628""}'}",19,45,21861,660,22,45
119th & Halsted Currency,Currency Exchange,11932 S. Halsted Street,773-785-3141,Varies,Purchase Transit Cards and Passes.,41.676819,-87.641875,Chicago,"{'latitude': '41.676810412000464', 'longitude': '-87.64194023499965', 'human_address': '{""address"": ""11932 Halsted Street"", ""city"": ""Chicago"", ""state"": ""IL"", ""zip"": ""60628""}'}",13,50,21861,662,22,45
12 Check Agencies,Currency Exchange,600 S. Pulaski Road,773-533-2927,Varies,Purchase Transit Cards and Passes.,41.873421,-87.725412,Chicago,"{'latitude': '41.89206021700045', 'longitude': '-87.72598079899967', 'human_address': '{""address"": ""600 Pulaski Road"", ""city"": ""Chicago"", ""state"": ""IL"", ""zip"": ""60624""}'}",30,24,21572,584,45,41
141 Jackson Currency (Board of Trade),Currency Exchange,141 W. Jackson Blvd.,312-939-2167,Varies,Purchase Transit Cards and Passes.,41.878135,-87.632064,Chicago,"{'latitude': '41.878140646000475', 'longitude': '-87.63229102299965', 'human_address': '{""address"": ""141 Jackson Blvd"", ""city"": ""Chicago"", ""state"": ""IL"", ""zip"": ""60604""}'}",29,38,14912,92,36,22
141 W Jackson Blvd C E  10136,Ventra Retail Location,141 W Jackson Blvd.,,Varies,Varies,41.8780574,-87.6322115,Chicago,"{'latitude': '41.878140646000475', 'longitude': '-87.63229102299965', 'human_address': '{""address"": ""141 Jackson Blvd"", ""city"": ""Chicago"", ""state"": """", ""zip"": ""60604""}'}",29,38,14912,92,36,22
147th & Cicero C E,Ventra Retail Location,14655 South Cicero Ave,,Varies,Varies,41.6261803,-87.7372955,Midlothian,"{'latitude': '41.62569787400048', 'longitude': '-87.73725440599969', 'human_address': '{""address"": ""14655 Cicero Ave"", ""city"": ""Midlothian"", ""state"": """", ""zip"": ""60445""}'}",,,9719,,,
147th & Cicero Currency,Currency Exchange,14655 S. Cicero Avenue,708-385-2233,Varies,Purchase Transit Cards and Passes.,41.626085,-87.737317,Midlothian,"{'latitude': '41.62569787400048', 'longitude': '-87.73725440599969', 'human_address': '{""address"": ""14655 Cicero Avenue"", ""city"": ""Midlothian"", ""state"": ""IL"", ""zip"": ""60445""}'}",,,9719,,,
147th & Dixie Highway C E,Ventra Retail Location,14725 South Dixie Highway,,Varies,Varies,41.621691,-87.674016,Harvey,"{'latitude': '41.621670244000484', 'longitude': '-87.67437007099966', 'human_address': '{""address"": ""14725 Dixie Highway"", ""city"": ""Harvey"", ""state"": """", ""zip"": ""60426""}'}",,,9293,,,
147th & Halsted C E,Ventra Retail Location,14701 South Halsted,,Varies,Varies,41.622338,-87.641065,Harvey,"{'latitude': '41.62230054200046', 'longitude': '-87.64138022699967', 'human_address': '{""address"": ""14701 Halsted"", ""city"": ""Harvey"", ""state"": """", ""zip"": ""60426""}'}",,,9293,,,
147th & Halsted Currency,Currency Exchange,14701 S. Halsted,708-596-0328,Varies,Purchase Transit Cards and Passes.,41.622556,-87.64138,Harvey,"{'latitude': '41.62230054200046', 'longitude': '-87.64138022699967', 'human_address': '{""address"": ""14701 Halsted"", ""city"": ""Harvey"", ""state"": ""IL"", ""zip"": ""60426""}'}",,,9293,,,
147th & Pulaski C E,Ventra Retail Location,14755 South Pulaski Ave,,Varies,Varies,41.6238713,-87.7174067,Midlothian,"{'latitude': '41.623880321000456', 'longitude': '-87.71765094899968', 'human_address': '{""address"": ""14755 Pulaski Ave"", ""city"": ""Midlothian"", ""state"": """", ""zip"": ""60445""}'}",,,9719,,,
154th & Park C E,Ventra Retail Location,206 East 154th Street,,Varies,Varies,41.6099323,-87.6438896,Harvey,"{'latitude': '41.609890461000475', 'longitude': '-87.66825029899968', 'human_address': '{""address"": ""206 154th Street"", ""city"": ""Harvey"", ""state"": """", ""zip"": ""60426""}'}",,,9293,,,
157th & Dixie Highway C E,Ventra Retail Location,15652 South Dixie Highway,,Varies,Varies,41.604858,-87.669781,Markham,"{'latitude': '41.60495582100049', 'longitude': '-87.66942534599968', 'human_address': '{""address"": ""15652 Dixie Highway"", ""city"": ""Markham"", ""state"": """", ""zip"": ""60426""}'}",,,9293,,,
159th & Halsted C E,Ventra Retail Location,362 East 159th Street,,Varies,Varies,41.600605,-87.635395,harvey,"{'latitude': '41.60087375600045', 'longitude': '-87.63568734299969', 'human_address': '{""address"": ""362 159th Street"", ""city"": ""harvey"", ""state"": """", ""zip"": ""60426""}'}",,,9293,,,
159th & Kedzie C E,Ventra Retail Location,3200 West 159th Street,,Varies,Varies,41.6008529,-87.6942183,Markham,"{'latitude': '41.6003826110005', 'longitude': '-87.67775801499965', 'human_address': '{""address"": ""3200 159th Street"", ""city"": ""Markham"", ""state"": """", ""zip"": ""60426""}'}",,,9296,,,
159th & Kedzie Currency,Currency Exchange,3200 W. 159th Street,708-331-2711,Varies,Purchase Transit Cards and Passes.,41.60078,-87.694646,Markham,"{'latitude': '41.60080814800045', 'longitude': '-87.69472841099969', 'human_address': '{""address"": ""3200 159th Street"", ""city"": ""Markham"", ""state"": ""IL"", ""zip"": ""60428""}'}",,,9296,,,
167th & Halsted C E,Ventra Retail Location,16835 South Halsted,,Varies,Varies,41.585023,-87.635699,Harvey,"{'latitude': '41.58502075100046', 'longitude': '-87.63640006199967', 'human_address': '{""address"": ""16835 Halsted"", ""city"": ""Harvey"", ""state"": """", ""zip"": ""60426""}'}",,,9293,,,
183rd & Pulaski C E   ,Ventra Retail Location,4035 West 183rd Street,,Varies,Varies,41.5570588,-87.7145466,Country Club Hills,"{'latitude': '41.55710326900049', 'longitude': '-87.71525750899968', 'human_address': '{""address"": ""4035 183rd Street"", ""city"": ""Country Club Hills"", ""state"": """", ""zip"": ""60478""}'}",,,2714,,,
18th & Ashland C E,Ventra Retail Location,1804 South Ashland Avenue,,Varies,Varies,41.8575012,-87.6663621,Chicago,"{'latitude': '41.857520553000484', 'longitude': '-87.66616005899965', 'human_address': '{""address"": ""1804 Ashland Avenue"", ""city"": ""Chicago"", ""state"": """", ""zip"": ""60608""}'}",43,33,14920,343,26,8
18th & Ashland Currency,Currency Exchange,1804 S. Ashland Avenue,312-829-9141,Varies,Purchase Transit Cards and Passes.,41.857622,-87.666137,Chicago,"{'latitude': '41.857520553000484', 'longitude': '-87.66616005899965', 'human_address': '{""address"": ""1804 Ashland Avenue"", ""city"": ""Chicago"", ""state"": ""IL"", ""zip"": ""60608""}'}",43,33,14920,343,26,8
18th & Blue Island Currency,Currency Exchange,1825 S. Blue Island,312-666-9670,Varies,"Purchase Chicago Cards, Transit Cards and Passes.",41.857223,-87.661709,Chicago,"{'latitude': '41.852243736000446', 'longitude': '-87.66731751799966', 'human_address': '{""address"": ""1825 Blue Island"", ""city"": ""Chicago"", ""state"": ""IL"", ""zip"": ""60608""}'}",43,33,14920,126,26,8
18th Rail Station,CTA Rail Station,1710 W. 18th Street,1-888-YOURCTA,Cash,Purchase new Transit Cards and add value to Transit Cards and Chicago Cards.,41.857908,-87.669147,Chicago,"{'latitude': '41.857783905000474', 'longitude': '-87.66898345299967', 'human_address': '{""address"": ""1710 18th Street"", ""city"": ""Chicago"", ""state"": ""IL"", ""zip"": ""60608""}'}",43,33,14920,343,26,8
1 Jackpot Mini Mart,Ventra Retail Location,535 W. 111th Street,,Varies,Varies,41.6924088,-87.6366018,Chicago,"{'latitude': '41.69240213100045', 'longitude': '-87.63650185899968', 'human_address': '{""address"": ""535 111th Street"", ""city"": ""Chicago"", ""state"": """", ""zip"": ""60628""}'}",19,45,21861,486,22,45
21st & Ashland C E Inc  D,Ventra Retail Location,2023 South Ashland,,Varies,Varies,41.854309,-87.665544,Chicago,"{'latitude': '41.852243736000446', 'longitude': '-87.66731751799966', 'human_address': '{""address"": ""2023 Ashland"", ""city"": ""Chicago"", ""state"": """", ""zip"": ""60608""}'}",43,33,14920,126,26,8
26th & Central Park C E,Ventra Retail Location,3540 West 26th Street,,Varies,Varies,41.8444125,-87.7139714,Chicago,"{'latitude': '41.84443659900046', 'longitude': '-87.71402018999964', 'human_address': '{""address"": ""3540 26th Street"", ""city"": ""Chicago"", ""state"": """", ""zip"": ""60623""}'}",57,32,21569,755,28,14
26th & Central Park Currency,Currency Exchange,3540 W. 26th Street,773-762-8330,Varies,Purchase Transit Cards and Passes.,41.844396,-87.713966,Chicago,"{'latitude': '41.84443659900046', 'longitude': '-87.71402018999964', 'human_address': '{""address"": ""3540 26th Street"", ""city"": ""Chicago"", ""state"": ""IL"", ""zip"": ""60623""}'}",57,32,21569,755,28,14
26th & Kedzie C E,Ventra Retail Location,3221 West 26th Street,,Varies,Varies,41.844248,-87.705881,Chicago ,"{'latitude': '41.844489876000466', 'longitude': '-87.70578238399969', 'human_address': '{""address"": ""3221 26th Street"", ""city"": ""Chicago"", ""state"": """", ""zip"": ""60623""}'}",57,32,21569,146,1,14
26th & Kedzie Currency,Currency Exchange,3221 W. 26th Street,773-247-2074,Varies,Purchase Transit Cards and Passes.,41.844507,-87.705785,Chicago,"{'latitude': '41.844489876000466', 'longitude': '-87.70578238399969', 'human_address': '{""address"": ""3221 26th Street"", ""city"": ""Chicago"", ""state"": ""IL"", ""zip"": ""60623""}'}",57,32,21569,146,1,14
26th & Pulaski Currency,Currency Exchange,4004 W. 26th Street,773-522-2525,Varies,"Purchase Chicago Cards, Transit Cards, and Passes AND add value to Chicago Cards using Touch-n-Go.",41.844254,-87.724781,Chicago,"{'latitude': '41.84430425900047', 'longitude': '-87.72474292599969', 'human_address': '{""address"": ""4004 26th Street"", ""city"": ""Chicago"", ""state"": ""IL"", ""zip"": ""60623""}'}",57,32,21569,194,28,14
2934 W. Grand Avenue Currency,Currency Exchange,2934 W. Grand Avenue,773-278-2155,Varies,Purchase Transit Cards and Passes.,41.895882,-87.700543,Chicago,"{'latitude': '41.89584085500047', 'longitude': '-87.70039091199965', 'human_address': '{""address"": ""2934 Grand Avenue"", ""city"": ""Chicago"", ""state"": ""IL"", ""zip"": ""60622""}'}",4,25,21560,544,49,10
31st & Morgan Check Cashers,Ventra Retail Location,906 West 31st Street,,Varies,Varies,41.8381001,-87.649117,Chicago,"{'latitude': '41.838043696000454', 'longitude': '-87.64900127599964', 'human_address': '{""address"": ""906 31st Street"", ""city"": ""Chicago"", ""state"": """", ""zip"": ""60608""}'}",43,58,14920,59,48,26
31st & Morgan Currency,Currency Exchange,906 W. 31st Street,312-225-7591,Varies,Purchase Transit Cards and Passes.,41.838008,-87.64912,Chicago,"{'latitude': '41.838043696000454', 'longitude': '-87.64900127599964', 'human_address': '{""address"": ""906 31st Street"", ""city"": ""Chicago"", ""state"": ""IL"", ""zip"": ""60608""}'}",43,58,14920,59,48,26
31st & Wallace C E,Ventra Retail Location,3101 South Wallace,,Varies,Varies,41.8378364,-87.6413429,Chicago ,"{'latitude': '41.8460738280005', 'longitude': '-87.62909884999965', 'human_address': '{""address"": ""3101 Wallace"", ""city"": ""Chicago"", ""state"": """", ""zip"": ""60616""}'}",40,34,21194,193,9,12
"31st & Wallace Check Cashiers, Inc.",Currency Exchange,3101 S. Wallace,312-225-7885,Varies,"Purchase Chicago Cards, Transit Cards and Passes.",41.838016,-87.641413,Chicago,"{'latitude': '41.8460738280005', 'longitude': '-87.62909884999965', 'human_address': '{""address"": ""3101 Wallace"", ""city"": ""Chicago"", ""state"": ""IL"", ""zip"": ""60616""}'}",40,34,21194,193,9,12
35-Bronzeville-IIT Rail Station,CTA Rail Station,16 E. 35th Street,1-888-YOURCTA,Cash,Purchase new Transit Cards and add value to Transit Cards and Chicago Cards.,41.831677,-87.625826,Chicago,"{'latitude': '41.83103106300047', 'longitude': '-87.62689766099965', 'human_address': '{""address"": ""16 35th Street"", ""city"": ""Chicago"", ""state"": ""IL"", ""zip"": ""60616""}'}",40,1,21194,25,9,12
35th/Archer Rail Station,CTA Rail Station,3528 S. Leavitt Street,1-888-YOURCTA,Cash,Purchase new Transit Cards and add value to Transit Cards and Chicago Cards.,41.829353,-87.680622,Chicago,"{'latitude': '41.82909337400048', 'longitude': '-87.68014039799965', 'human_address': '{""address"": ""3528 Leavitt Street"", ""city"": ""Chicago"", ""state"": ""IL"", ""zip"": ""60609""}'}",37,56,14924,719,1,26
35th & Ashland C E,Ventra Retail Location,1556 W. 35th Street,773-523-9266,Varies,Varies,41.8304814,-87.6653659,Chicago ,"{'latitude': '41.83053214200049', 'longitude': '-87.66471318999965', 'human_address': '{""address"": ""1556 35th Street"", ""city"": ""Chicago"", ""state"": """", ""zip"": ""60609""}'}",43,56,14924,192,1,26
35th & Ashland Currency,Currency Exchange,1556 W. 35th Street,773-523-9266,Varies,Purchase Transit Cards and Passes.,41.830503,-87.665417,Chicago,"{'latitude': '41.83053214200049', 'longitude': '-87.66471318999965', 'human_address': '{""address"": ""1556 35th Street"", ""city"": ""Chicago"", ""state"": ""IL"", ""zip"": ""60609""}'}",43,56,14924,192,1,26
35th & Indiana Currency,Currency Exchange,126 E. 35th Street,312-225-6722,Varies,Purchase Transit Cards and Passes.,41.831056,-87.622018,Chicago,"{'latitude': '41.81843090300049', 'longitude': '-87.61270948899966', 'human_address': '{""address"": ""126 35th Street"", ""city"": ""Chicago"", ""state"": ""IL"", ""zip"": ""60653""}'}",36,4,4301,583,10,1
3600 Commissary,Food Store,3600 N. Lake Shore Drive,773-327-5102,Varies,Purchase Transit Cards and Passes.,41.948855,-87.643128,Chicago,"{'latitude': '41.949039849000485', 'longitude': '-87.64364513899966', 'human_address': '{""address"": ""3600 Lake Shore Drive"", ""city"": ""Chicago"", ""state"": ""IL"", ""zip"": ""60613""}'}",53,57,21186,726,39,37
3600 Commissary,Ventra Retail Location,3600 N. Lake Shore Drive,773-327-5102,Varies,Varies,41.948854,-87.643496,Chicago,"{'latitude': '41.949039849000485', 'longitude': '-87.64364513899966', 'human_address': '{""address"": ""3600 Lake Shore Drive"", ""city"": ""Chicago"", ""state"": """", ""zip"": ""60613""}'}",53,57,21186,726,39,37
39th & Cottage Grove Currency,Currency Exchange,3960 S. Cottage Grove Avenue,773-924-1500,Varies,"Purchase Chicago Cards, Transit Cards and Passes.",41.822238,-87.606849,Chicago,"{'latitude': '41.82219042300045', 'longitude': '-87.60684056199966', 'human_address': '{""address"": ""3960 Cottage Grove Avenue"", ""city"": ""Chicago"", ""state"": ""IL"", ""zip"": ""60653""}'}",36,2,4301,220,10,1
43rd & Ashland Currency,Currency Exchange,4303 S. Ashland,773-247-4422,Varies,"Purchase Chicago Cards, Transit Cards and Passes.",41.815729,-87.665145,Chicago,"{'latitude': '41.81387299200048', 'longitude': '-87.65534702799965', 'human_address': '{""address"": ""4303 Ashland"", ""city"": ""Chicago"", ""state"": ""IL"", ""zip"": ""60609""}'}",37,59,14924,123,48,26
"43rd & Ashland Currency Exchange, Inc.",Ventra Retail Location,4303 S. Ashland,773-247-4422,Varies,Varies,41.816001,-87.66503,Chicago,"{'latitude': '41.81387299200048', 'longitude': '-87.65534702799965', 'human_address': '{""address"": ""4303 Ashland"", ""city"": ""Chicago"", ""state"": """", ""zip"": ""60609""}'}",37,59,14924,123,48,26
"43rd & Pulaski Currency Exchange, Inc.",Ventra Retail Location,4328 S Pulaski,,Varies,Varies,41.814546,-87.724038,Chicago,"{'latitude': '41.80875023100049', 'longitude': '-87.70980732699968', 'human_address': '{""address"": ""4328 Pulaski"", ""city"": ""Chicago"", ""state"": """", ""zip"": ""60632""}'}",56,55,22248,640,8,49
43rd Rail Station,CTA Rail Station,314 E. 43rd Street,1-888-YOURCTA,Cash,Purchase new Transit Cards and add value to Transit Cards and Chicago Cards.,41.816462,-87.619021,Chicago,"{'latitude': '41.81664040300046', 'longitude': '-87.61901061699967', 'human_address': '{""address"": ""314 43rd Street"", ""city"": ""Chicago"", ""state"": ""IL"", ""zip"": ""60653""}'}",36,4,4301,163,9,12
47th & Calumet C E,Ventra Retail Location,310 East 47th Street,,Varies,Varies,41.8094384,-87.6190404,Chicago,"{'latitude': '41.8093916950005', 'longitude': '-87.61914168899966', 'human_address': '{""address"": ""310 47th Street"", ""city"": ""Chicago"", ""state"": """", ""zip"": ""60653""}'}",36,4,4301,448,9,12
47th & Calumet Currency,Currency Exchange,310 E. 47th Street,773-268-9494,Varies,"Purchase Chicago Cards, Transit Cards and Passes.",41.809344,-87.619089,Chicago,"{'latitude': '41.80229355300048', 'longitude': '-87.59993951799964', 'human_address': '{""address"": ""310 47th Street"", ""city"": ""Chicago"", ""state"": ""IL"", ""zip"": ""60615""}'}",10,8,21192,147,33,1
"47th & Damen Currency, Inc.",Currency Exchange,2001 W. 47th Street,773-247-5261,Varies,"Purchase Chicago Cards, Transit Cards and Passes.",41.808509,-87.674816,Chicago,"{'latitude': '41.80853011500045', 'longitude': '-87.67483098399964', 'human_address': '{""address"": ""2001 47th Street"", ""city"": ""Chicago"", ""state"": ""IL"", ""zip"": ""60609""}'}",37,59,14924,706,3,29
47th-Dan Ryan Rail Station,CTA Rail Station,220 W. 47th Street,1-888-YOURCTA,Cash,Purchase new Transit Cards and add value to Transit Cards and Chicago Cards.,41.810318,-87.63094,Chicago,"{'latitude': '41.80916080500049', 'longitude': '-87.63157846799965', 'human_address': '{""address"": ""220 47th Street"", ""city"": ""Chicago"", ""state"": ""IL"", ""zip"": ""60609""}'}",37,3,14924,189,9,12
47th & Halsted Check Cashers,Ventra Retail Location,4651 South Halsted Street,,Varies,Varies,41.809197,-87.645167,Chicago ,"{'latitude': '41.809153798000466', 'longitude': '-87.64550662399967', 'human_address': '{""address"": ""4651 Halsted Street"", ""city"": ""Chicago"", ""state"": """", ""zip"": ""60609""}'}",37,59,14924,123,48,26
"47th Halsted Check Cashiers, Inc.",Currency Exchange,4651 S. Halsted Street,773-373-0416,Varies,Purchase Transit Cards and Passes.,41.809182,-87.645549,Chicago,"{'latitude': '41.809153798000466', 'longitude': '-87.64550662399967', 'human_address': '{""address"": ""4651 Halsted Street"", ""city"": ""Chicago"", ""state"": ""IL"", ""zip"": ""60609""}'}",37,59,14924,123,48,26
47th & King Drive C E,Ventra Retail Location,432 East 47th Street,,Varies,Varies,41.8095166,-87.6150104,Chicago ,"{'latitude': '41.80944018700046', 'longitude': '-87.61497327999967', 'human_address': '{""address"": ""432 47th Street"", ""city"": ""Chicago"", ""state"": """", ""zip"": ""60653""}'}",36,4,4301,447,9,12
47th & King Drive Currency,Currency Exchange,432 E. 47th Street,773-268-4363,Varies,Purchase Transit Cards and Passes.,41.809408,-87.614974,Chicago,"{'latitude': '41.80229355300048', 'longitude': '-87.59993951799964', 'human_address': '{""address"": ""432 47th Street"", ""city"": ""Chicago"", ""state"": ""IL"", ""zip"": ""60615""}'}",10,8,21192,147,33,1
47th & Lake Park Currency,Currency Exchange,1400 E. 47th Drive,773-536-6231,Varies,Purchase Transit Cards and Passes.,41.809686,-87.592374,Chicago,"{'latitude': '41.81843090300049', 'longitude': '-87.61270948899966', 'human_address': '{""address"": ""1400 47th Drive"", ""city"": ""Chicago"", ""state"": ""IL"", ""zip"": ""60653""}'}",36,4,4301,583,10,1
47th & Michigan C E,Ventra Retail Location,4700 South Michigan Avenue,,Varies,Varies,41.80898,-87.623292,Chicago ,"{'latitude': '41.80898065700046', 'longitude': '-87.62283078499968', 'human_address': '{""address"": ""4700 Michigan Avenue"", ""city"": ""Chicago"", ""state"": """", ""zip"": ""60615""}'}",10,4,21192,448,9,12
47th & Michigan Currency,Currency Exchange,4700 S. Michigan Avenue,773-924-2500,Varies,Purchase Transit Cards and Passes.,41.809196,-87.622833,Chicago,"{'latitude': '41.80898065700046', 'longitude': '-87.62283078499968', 'human_address': '{""address"": ""4700 Michigan Avenue"", ""city"": ""Chicago"", ""state"": ""IL"", ""zip"": ""60615""}'}",10,4,21192,448,9,12
47th-South Elevated Rail Station,CTA Rail Station,314 E. 47th Street,1-888-YOURCTA,Cash,Purchase new Transit Cards and add value to Transit Cards and Chicago Cards.,41.809209,-87.618826,Chicago,"{'latitude': '41.80229355300048', 'longitude': '-87.59993951799964', 'human_address': '{""address"": ""314 47th Street"", ""city"": ""Chicago"", ""state"": ""IL"", ""zip"": ""60615""}'}",10,8,21192,147,33,1
51st & Kedzie C E,Ventra Retail Location,5100 South Kedzie,,Varies,Varies,41.8007068,-87.7038991,Chicago,"{'latitude': '41.80875023100049', 'longitude': '-87.70980732699968', 'human_address': '{""address"": ""5100 Kedzie"", ""city"": ""Chicago"", ""state"": """", ""zip"": ""60632""}'}",56,55,22248,640,8,49
51st Rail Station,CTA Rail Station,314 E. 51st Street,1-888-YOURCTA,Cash,Purchase new Transit Cards and add value to Transit Cards and Chicago Cards.,41.80209,-87.618487,Chicago,"{'latitude': '41.8021165020005', 'longitude': '-87.61883931499966', 'human_address': '{""address"": ""314 51st Street"", ""city"": ""Chicago"", ""state"": ""IL"", ""zip"": ""60615""}'}",10,4,21192,449,9,12
54th/Cermak Rail Station,CTA Rail Station,2134 S. 54th Avenue,1-888-YOURCTA,"Cash, Credit, Debit",Purchase new Transit Cards and add value to Transit Cards and Chicago Cards.,41.851663,-87.759598,Cicero,"{'latitude': '41.85141230500045', 'longitude': '-87.75899984799969', 'human_address': '{""address"": ""2134 54th Avenue"", ""city"": ""Cicero"", ""state"": ""IL"", ""zip"": ""60804""}'}",,,4458,,,
55th & California Currency,Currency Exchange,5453 S. California,773-776-6800,Varies,"Purchase Chicago Cards, Transit Cards and Passes.",41.793952,-87.693805,Chicago,"{'latitude': '41.80875023100049', 'longitude': '-87.70980732699968', 'human_address': '{""address"": ""5453 California"", ""city"": ""Chicago"", ""state"": ""IL"", ""zip"": ""60632""}'}",56,55,22248,640,8,49
"55th & California Currency Exchange, Inc.",Ventra Retail Location,5453 S California,,Varies,Varies,41.794296,-87.693783,Chicago,"{'latitude': '41.7778224810005', 'longitude': '-87.70800849499966', 'human_address': '{""address"": ""5453 California"", ""city"": ""Chicago"", ""state"": """", ""zip"": ""60629""}'}",58,64,21867,293,6,44
55th & Pulaski Currency,Currency Exchange,5501 S. Pulaski,773-735-4300,Varies,"Purchase Chicago Cards, Transit Cards and Passes.",41.793158,-87.723157,Chicago,"{'latitude': '41.7778224810005', 'longitude': '-87.70800849499966', 'human_address': '{""address"": ""5501 Pulaski"", ""city"": ""Chicago"", ""state"": ""IL"", ""zip"": ""60629""}'}",58,64,21867,293,6,44
"55th & Pulaski Currency Exchange, Inc",Ventra Retail Location,5501 S Pulaski,,Varies,Varies,41.793241,-87.722965,Chicago,"{'latitude': '41.7778224810005', 'longitude': '-87.70800849499966', 'human_address': '{""address"": ""5501 Pulaski"", ""city"": ""Chicago"", ""state"": """", ""zip"": ""60629""}'}",58,64,21867,293,6,44
55th & Racine Currency,Currency Exchange,756 West Garfield Blvd,773-436-0717,Varies,"Purchase Chicago Cards, Transit Cards and Passes.",41.793729,-87.654863,Chicago,"{'latitude': '41.79350089600047', 'longitude': '-87.65486077799966', 'human_address': '{""address"": ""5500 Racine Avenue"", ""city"": ""Chicago"", ""state"": ""IL"", ""zip"": ""60636""}'}",23,65,22257,297,2,19
59th & Kedzie C E,Ventra Retail Location,5903 S. Kedzie Ave,,Varies,Varies,41.7861881,-87.7033096,Chicago ,"{'latitude': '41.7861291530005', 'longitude': '-87.70329709299966', 'human_address': '{""address"": ""5903 Kedzie Ave"", ""city"": ""Chicago"", ""state"": """", ""zip"": ""60629""}'}",58,64,21867,183,2,19
59th & Kedzie Currency,Currency Exchange,5903 S. Kedzie Avenue,773-434-2161,Varies,Purchase Transit Cards and Passes.,41.786103,-87.703345,Chicago,"{'latitude': '41.7861291530005', 'longitude': '-87.70329709299966', 'human_address': '{""address"": ""5903 Kedzie Avenue"", ""city"": ""Chicago"", ""state"": ""IL"", ""zip"": ""60629""}'}",58,64,21867,183,2,19
"62nd & Western Currency Exchange, Inc",Ventra Retail Location,6152 S Western,,Varies,Varies,41.781865,-87.683827,Chicago,"{'latitude': '41.7778224810005', 'longitude': '-87.70800849499966', 'human_address': '{""address"": ""6152 Western"", ""city"": ""Chicago"", ""state"": """", ""zip"": ""60629""}'}",58,64,21867,293,6,44
"63rd & Ashland  Currency Exchange, Inc",Ventra Retail Location,6240 S Ashland,,Varies,Varies,41.780257,-87.664579,Chicago,"{'latitude': '41.77666236500045', 'longitude': '-87.66772594899965', 'human_address': '{""address"": ""6240 Ashland"", ""city"": ""Chicago"", ""state"": """", ""zip"": ""60636""}'}",23,65,22257,280,3,44
63rd-Dan Ryan Rail Station,CTA Rail Station,220 W. 63rd Street,1-888-YOURCTA,Cash,Purchase new Transit Cards and add value to Transit Cards and Chicago Cards.,41.780536,-87.630952,Chicago,"{'latitude': '41.780005522000465', 'longitude': '-87.63092779399966', 'human_address': '{""address"": ""220 63rd Street"", ""city"": ""Chicago"", ""state"": ""IL"", ""zip"": ""60621""}'}",11,66,21559,166,4,53
63rd & Kedzie C E,Ventra Retail Location,3148 West 63rd Street,,Varies,Varies,41.7791023,-87.7026147,Chicago ,"{'latitude': '41.77900495600045', 'longitude': '-87.70228498499966', 'human_address': '{""address"": ""3148 63rd Street"", ""city"": ""Chicago"", ""state"": """", ""zip"": ""60629""}'}",58,64,21867,182,2,44
63rd & Morgan C E,Ventra Retail Location,6301 South Morgan,,Varies,Varies,41.7796752,-87.6496137,Chicago,"{'latitude': '41.77510250800049', 'longitude': '-87.63886642199964', 'human_address': '{""address"": ""6301 Morgan"", ""city"": ""Chicago"", ""state"": """", ""zip"": ""60621""}'}",11,66,21559,435,4,53
63rd & Morgan Currency,Currency Exchange,6301 S. Morgan,773-471-4900,Varies,Purchase Transit Cards and Passes.,41.779583,-87.649641,Chicago,"{'latitude': '41.77510250800049', 'longitude': '-87.63886642199964', 'human_address': '{""address"": ""6301 Morgan"", ""city"": ""Chicago"", ""state"": ""IL"", ""zip"": ""60621""}'}",11,66,21559,435,4,53
63rd & Pulaski Currency,Currency Exchange,4021 W. 63rd Street,773-767-7636,Varies,"Purchase Chicago Cards, Transit Cards and Passes.",41.778644,-87.723739,Chicago,"{'latitude': '41.77863489800046', 'longitude': '-87.72362791599966', 'human_address': '{""address"": ""4021 63rd Street"", ""city"": ""Chicago"", ""state"": ""IL"", ""zip"": ""60629""}'}",58,63,21867,6,6,23
"63rd & Pulaski Currency Exchange, Inc",Ventra Retail Location,4021 W 63rd Street,,Varies,Varies,41.778753,-87.723852,Chicago,"{'latitude': '41.77863489800046', 'longitude': '-87.72362791599966', 'human_address': '{""address"": ""4021 63rd Street"", ""city"": ""Chicago"", ""state"": """", ""zip"": ""60629""}'}",58,63,21867,6,6,23
63rd & Racine Currency,Currency Exchange,1200 W. 63rd Street,773-778-0990,Varies,Purchase Transit Cards and Passes.,41.779608,-87.654564,Chicago,"{'latitude': '41.77960091400047', 'longitude': '-87.65467065199965', 'human_address': '{""address"": ""1200 63rd Street"", ""city"": ""Chicago"", ""state"": ""IL"", ""zip"": ""60636""}'}",23,65,22257,21,2,19
649 N. Ashland Marathon Station,Ventra Retail Location,649 N. Ashland Avenue,,Varies,Varies,41.8936865,-87.6671299,Chicago,"{'latitude': '41.89362682000046', 'longitude': '-87.66719787599965', 'human_address': '{""address"": ""649 Ashland Avenue"", ""city"": ""Chicago"", ""state"": """", ""zip"": ""60622""}'}",49,25,22620,485,41,41
67th & Pulaski Currency,Currency Exchange,6638 S. Pulaski,773-585-8980,Varies,"Purchase Chicago Cards, Transit Cards and Passes.",41.772,-87.72259,Chicago,"{'latitude': '41.7778224810005', 'longitude': '-87.70800849499966', 'human_address': '{""address"": ""6638 Pulaski"", ""city"": ""Chicago"", ""state"": ""IL"", ""zip"": ""60629""}'}",58,64,21867,293,6,44
"67th & Pulaski Currency Exchange, Inc",Ventra Retail Location,6701 S Pulaski,,Varies,Varies,41.771408,-87.722204,Chicago,"{'latitude': '41.7778224810005', 'longitude': '-87.70800849499966', 'human_address': '{""address"": ""6701 Pulaski"", ""city"": ""Chicago"", ""state"": """", ""zip"": ""60629""}'}",58,64,21867,293,6,44
69th & Ashland Currency,Currency Exchange,6858 S. Ashland Avenue,773-436-7300,Varies,Purchase Transit Cards and Passes.,41.768643,-87.663905,Chicago,"{'latitude': '41.76929632200046', 'longitude': '-87.66396278399964', 'human_address': '{""address"": ""6858 Ashland Avenue"", ""city"": ""Chicago"", ""state"": ""IL"", ""zip"": ""60636""}'}",23,65,22257,283,31,17
69th Rail Station,CTA Rail Station,15 W. 69th Street,1-888-YOURCTA,Cash,Purchase new Transit Cards and add value to Transit Cards and Chicago Cards.,41.768367,-87.625724,Chicago,"{'latitude': '41.76915365400049', 'longitude': '-87.62574357799969', 'human_address': '{""address"": ""15 69th Street"", ""city"": ""Chicago"", ""state"": ""IL"", ""zip"": ""60621""}'}",11,67,22260,513,32,31
71st & Indiana Currency,Currency Exchange,201 E. 71st Street,773-224-4445,Varies,Purchase Transit Cards and Passes.,41.765614,-87.620017,Chicago,"{'latitude': '41.782310872000494', 'longitude': '-87.60409768799968', 'human_address': '{""address"": ""201 71st Street"", ""city"": ""Chicago"", ""state"": ""IL"", ""zip"": ""60637""}'}",60,9,22260,470,4,53
71st & Jeffery C E ,Ventra Retail Location,1953 East 71st Street,,Varies,Varies,41.7660109,-87.5767022,Chicago ,"{'latitude': '41.76602090300048', 'longitude': '-87.57715987199964', 'human_address': '{""address"": ""1953 71st Street"", ""city"": ""Chicago"", ""state"": """", ""zip"": ""60649""}'}",24,39,22538,452,33,32
71st & Jeffery Currency,Currency Exchange,7100 S. Jeffery,773-684-7744,Varies,Purchase Transit Cards and Passes.,41.76603,-87.576297,Chicago,"{'latitude': '41.76254109700045', 'longitude': '-87.56934633399965', 'human_address': '{""address"": ""7100 Jeffery"", ""city"": ""Chicago"", ""state"": ""IL"", ""zip"": ""60649""}'}",24,39,22538,418,37,43
71st & Wentworth C E,Ventra Retail Location,7057 South Wentworth Avenue,,Varies,Varies,41.765662,-87.62945,Chicago ,"{'latitude': '41.76565023100045', 'longitude': '-87.62977098199968', 'human_address': '{""address"": ""7057 Wentworth Avenue"", ""city"": ""Chicago"", ""state"": """", ""zip"": ""60621""}'}",11,67,21559,513,32,31
71st & Wentworth Currency,Currency Exchange,7057 S. Wentworth,773-783-1515,Varies,Purchase Transit Cards and Passes.,41.765582,-87.629775,Chicago,"{'latitude': '41.77510250800049', 'longitude': '-87.63886642199964', 'human_address': '{""address"": ""7057 Wentworth"", ""city"": ""Chicago"", ""state"": ""IL"", ""zip"": ""60621""}'}",11,66,21559,435,4,53
74th & Ashland Currency,Currency Exchange,7356 S. Ashland Avenue,773-776-7777,Varies,Purchase Transit Cards and Passes.,41.759557,-87.663642,Chicago,"{'latitude': '41.7596203380005', 'longitude': '-87.66365038799967', 'human_address': '{""address"": ""7356 Ashland Avenue"", ""city"": ""Chicago"", ""state"": ""IL"", ""zip"": ""60636""}'}",23,65,22257,433,31,17
75th & Cottage Currency,Currency Exchange,7500 S. Cottage Grove Avenue,773-783-4300,Varies,Purchase Transit Cards and Passes.,41.758489,-87.605387,Chicago,"{'latitude': '41.75849303500047', 'longitude': '-87.60542283699965', 'human_address': '{""address"": ""7500 Cottage Grove Avenue"", ""city"": ""Chicago"", ""state"": ""IL"", ""zip"": ""60619""}'}",61,67,21546,496,32,31
75th & Exchange Currency,Currency Exchange,2640 E. 75th Street,773-721-8400,Varies,"Purchase Chicago Cards, Transit Cards and Passes.",41.759191,-87.559925,Chicago,"{'latitude': '41.759226208000484', 'longitude': '-87.55993802399968', 'human_address': '{""address"": ""2640 75th Street"", ""city"": ""Chicago"", ""state"": ""IL"", ""zip"": ""60649""}'}",24,39,22538,421,37,43
75th & King Drive C E ,Ventra Retail Location,345 East 75th Street,,Varies,Varies,41.7583703,-87.6163031,Chicago ,"{'latitude': '41.75836008900046', 'longitude': '-87.61645658099968', 'human_address': '{""address"": ""345 75th Street"", ""city"": ""Chicago"", ""state"": """", ""zip"": ""60619""}'}",61,67,21546,475,32,31
75th & King Drive Currency,Currency Exchange,345 E. 75th,773-483-4787,Varies,Purchase Transit Cards and Passes.,41.758382,-87.616545,Chicago,"{'latitude': '41.7458432410005', 'longitude': '-87.60576617099969', 'human_address': '{""address"": ""345 75th"", ""city"": ""Chicago"", ""state"": ""IL"", ""zip"": ""60619""}'}",61,40,21546,11,35,31
75th & Stony Island C E,Ventra Retail Location,1611 East 75th Street,,Varies,Varies,41.758519,-87.585163,Chicago ,"{'latitude': '41.75877110500045', 'longitude': '-87.58516036899965', 'human_address': '{""address"": ""1611 75th Street"", ""city"": ""Chicago"", ""state"": """", ""zip"": ""60649""}'}",24,39,22538,188,35,9
75th & Stony Island Currency,Currency Exchange,1611 E. 75th Street,773-684-5821,Varies,Purchase Transit Cards and Passes.,41.758773,-87.585249,Chicago,"{'latitude': '41.75877110500045', 'longitude': '-87.58516036899965', 'human_address': '{""address"": ""1611 75th Street"", ""city"": ""Chicago"", ""state"": ""IL"", ""zip"": ""60649""}'}",24,39,22538,188,35,9
75th & Vincennes Currency,Currency Exchange,250 W. 75th Street,773-224-4600,Varies,Purchase Transit Cards and Passes.,41.758128,-87.631411,Chicago,"{'latitude': '41.75738332700047', 'longitude': '-87.67210735299966', 'human_address': '{""address"": ""250 75th Street"", ""city"": ""Chicago"", ""state"": ""IL"", ""zip"": ""60620""}'}",59,70,21554,573,31,6
79th & Cottage C E  ,Ventra Retail Location,7859 South Cottage Grove,,Varies,Varies,41.7517956,-87.6052162,Chicago ,"{'latitude': '41.742793047000475', 'longitude': '-87.65344826099965', 'human_address': '{""address"": ""7859 Cottage Grove"", ""city"": ""Chicago"", ""state"": """", ""zip"": ""60620""}'}",59,70,21554,530,13,18
79th & Cottage Currency,Currency Exchange,7859 S. Cottage Grove Avenue,773-874-2713,Varies,"Purchase Chicago Cards, Transit Cards and Passes.",41.751377,-87.605209,Chicago,"{'latitude': '41.751607023000474', 'longitude': '-87.60519321399966', 'human_address': '{""address"": ""7859 Cottage Grove Avenue"", ""city"": ""Chicago"", ""state"": ""IL"", ""zip"": ""60619""}'}",61,67,21546,497,35,31
79th & Jeffery Currency,Currency Exchange,1955 E. 79th Street,773-374-3206,Cash,Purchase new Transit Cards and Passes AND add value to Transit Cards and Chicago Cards.,41.751604,-87.576212,Chicago,"{'latitude': '41.72629071600045', 'longitude': '-87.55734977399965', 'human_address': '{""address"": ""1955 79th Street"", ""city"": ""Chicago"", ""state"": ""IL"", ""zip"": ""60617""}'}",25,44,21202,493,37,43
79th & Kedzie Currency,Currency Exchange,3247 W. 79th Street,773-778-4844,Varies,"Purchase Chicago Cards, Transit Cards and Passes.",41.749686,-87.70408,Chicago,"{'latitude': '41.749730298000486', 'longitude': '-87.70425105799967', 'human_address': '{""address"": ""3247 79th Street"", ""city"": ""Chicago"", ""state"": ""IL"", ""zip"": ""60652""}'}",8,69,4300,199,30,6
79th Rail Station,CTA Rail Station,15 W. 79th Street,1-888-YOURCTA,Cash,Purchase new Transit Cards and add value to Transit Cards and Chicago Cards.,41.750419,-87.625112,Chicago,"{'latitude': '41.7509305480005', 'longitude': '-87.62605691399966', 'human_address': '{""address"": ""15 79th Street"", ""city"": ""Chicago"", ""state"": ""IL"", ""zip"": ""60620""}'}",59,67,21554,495,32,31
79th & Rhodes Currency,Currency Exchange,531 E. 79th Street,773-224-7777,Varies,Purchase Transit Cards and Passes.,41.751181,-87.611232,Chicago,"{'latitude': '41.751124682000466', 'longitude': '-87.61140763999964', 'human_address': '{""address"": ""531 79th Street"", ""city"": ""Chicago"", ""state"": ""IL"", ""zip"": ""60619""}'}",61,40,21546,11,32,31
79th & Vincennes Currency,Currency Exchange,353 W. 79th Street,773-483-6735,Varies,"Purchase Chicago Cards, Transit Cards and Passes.",41.750789,-87.633936,Chicago,"{'latitude': '41.7507790300005', 'longitude': '-87.63343074299968', 'human_address': '{""address"": ""353 79th Street"", ""city"": ""Chicago"", ""state"": ""IL"", ""zip"": ""60620""}'}",59,40,21554,1,31,17
7 Seas Food Mart,Ventra Retail Location,6501 S. Cottage Grove Avenue   ,,Varies,Varies,41.776554,-87.605452,Chicago,"{'latitude': '41.77655082300049', 'longitude': '-87.60584038099967', 'human_address': '{""address"": ""6501 Cottage Grove Avenue"", ""city"": ""Chicago"", ""state"": """", ""zip"": ""60637""}'}",60,9,22260,347,4,53
"81st & Cicero Currency Exchange, Inc.",Ventra Retail Location,8063 S Cicero,,Varies,Varies,41.747822,-87.741226,Chicago,"{'latitude': '41.746760037000456', 'longitude': '-87.71793683299967', 'human_address': '{""address"": ""8063 Cicero"", ""city"": ""Chicago"", ""state"": """", ""zip"": ""60652""}'}",8,69,4300,199,30,6
83rd & Racine Currency,Currency Exchange,8258 S. Racine Avenue,773-846-0885,Varies,Purchase Transit Cards and Passes.,41.743307,-87.65354,Chicago,"{'latitude': '41.74341444300046', 'longitude': '-87.65357016699966', 'human_address': '{""address"": ""8258 Racine Avenue"", ""city"": ""Chicago"", ""state"": ""IL"", ""zip"": ""60620""}'}",59,70,21554,575,13,18
87th And Commercial,Ventra Retail Location,8701 South Commercial Ave,,Varies,Varies,41.737223,-87.551013,Chicago ,"{'latitude': '41.47706001600045', 'longitude': '-87.63591831799965', 'human_address': '{""address"": ""8701 Commercial Ave"", ""city"": ""Chicago"", ""state"": """", ""zip"": ""60619""}'}",,,26902,,,
87th & Bishop C E,Ventra Retail Location,1435 West 87th Street,,Varies,Varies,41.7357085,-87.6596494,Chicago ,"{'latitude': '41.73584068600047', 'longitude': '-87.65963007499965', 'human_address': '{""address"": ""1435 87th Street"", ""city"": ""Chicago"", ""state"": """", ""zip"": ""60620""}'}",59,70,21554,533,13,18
87th & Bishop Currency,Currency Exchange,1435 W. 87th Street,773-779-8282,Varies,Purchase Transit Cards and Passes.,41.735843,-87.659563,Chicago,"{'latitude': '41.73584068600047', 'longitude': '-87.65963007499965', 'human_address': '{""address"": ""1435 87th Street"", ""city"": ""Chicago"", ""state"": ""IL"", ""zip"": ""60620""}'}",59,70,21554,533,13,18
87th & Cottage Currency,Currency Exchange,816 E. 87th Street,773-483-7749,Varies,Purchase Transit Cards and Passes.,41.736659,-87.604088,Chicago,"{'latitude': '41.736701482000456', 'longitude': '-87.60414891999966', 'human_address': '{""address"": ""816 87th Street"", ""city"": ""Chicago"", ""state"": ""IL"", ""zip"": ""60619""}'}",61,40,21546,141,35,9
87th & Halsted C E,Ventra Retail Location,808 W. 87th St. Unit D,,Varies,Varies,41.736483,-87.644072,Chicago ,"{'latitude': '41.73627048800046', 'longitude': '-87.64406043499969', 'human_address': '{""address"": ""808 87th St"", ""city"": ""Chicago"", ""state"": """", ""zip"": ""60620""}'}",59,70,21554,530,13,18
87th & Halsted Currency,Currency Exchange,808 W. 87th Street,773-224-7400,Varies,Purchase Transit Cards and Passes.,41.736068,-87.644063,Chicago,"{'latitude': '41.73627048800046', 'longitude': '-87.64406043499969', 'human_address': '{""address"": ""808 87th Street"", ""city"": ""Chicago"", ""state"": ""IL"", ""zip"": ""60620""}'}",59,70,21554,530,13,18
87th & Kedzie Currency,Currency Exchange,3218 W. 87th Street,773-434-1781,Varies,"Purchase Chicago Cards, Transit Cards and Passes.",41.736012,-87.702402,Chicago,"{'latitude': '41.735207139000465', 'longitude': '-87.70252279099964', 'human_address': '{""address"": ""3218 87th Street"", ""city"": ""Chicago"", ""state"": ""IL"", ""zip"": ""60652""}'}",8,69,4300,198,30,6
"87th & Kedzie Currency Exchange, Inc",Ventra Retail Location,3218 W 87th ST,,Varies,Varies,41.737768,-87.702495,Chicago,"{'latitude': '41.735207139000465', 'longitude': '-87.70252279099964', 'human_address': '{""address"": ""3218 87th ST"", ""city"": ""Chicago"", ""state"": """", ""zip"": ""60652""}'}",8,69,4300,198,30,6
87th Rail Station,CTA Rail Station,15 W. 87th Street,1-888-YOURCTA,Cash,Purchase new Transit Cards and add value to Transit Cards and Chicago Cards.,41.735372,-87.624717,Chicago,"{'latitude': '41.736281018000454', 'longitude': '-87.62573124999966', 'human_address': '{""address"": ""15 87th Street"", ""city"": ""Chicago"", ""state"": ""IL"", ""zip"": ""60620""}'}",59,40,21554,1,13,18
"95th & Ashland Currency Exchange, Inc",Ventra Retail Location,9459 S Ashland,,Varies,Varies,41.723412,-87.662659,Chicago,"{'latitude': '41.742793047000475', 'longitude': '-87.65344826099965', 'human_address': '{""address"": ""9459 Ashland"", ""city"": ""Chicago"", ""state"": """", ""zip"": ""60620""}'}",59,70,21554,530,13,18
95th & Cicero C E,Ventra Retail Location,9524 South Cicero Avenue,,Varies,Varies,41.7192792,-87.7411208,Oak Lawn,"{'latitude': '41.719635853000455', 'longitude': '-87.74082460999966', 'human_address': '{""address"": ""9524 Cicero Avenue"", ""city"": ""Oak Lawn"", ""state"": """", ""zip"": ""60453""}'}",,,10408,,,
95th & Cicero Currency,Currency Exchange,9524 S. Cicero Avenue,708-424-6300,Varies,Purchase Transit Cards and Passes.,41.719606,-87.740789,Oak Lawn,"{'latitude': '41.719635853000455', 'longitude': '-87.74082460999966', 'human_address': '{""address"": ""9524 Cicero Avenue"", ""city"": ""Oak Lawn"", ""state"": ""IL"", ""zip"": ""60453""}'}",,,10408,,,
95th/Dan Ryan Rail Station,CTA Rail Station,14 W. 95th Street,1-888-YOURCTA,"Cash, Credit, Debit",Purchase new Transit Cards and add value to Transit Cards and Chicago Cards.,41.722377,-87.624342,Chicago,"{'latitude': '41.742793047000475', 'longitude': '-87.65344826099965', 'human_address': '{""address"": ""14 95th Street"", ""city"": ""Chicago"", ""state"": ""IL"", ""zip"": ""60620""}'}",59,70,21554,530,13,18
95th & Kedzie Currency,Currency Exchange,3200 W. 95th Street,708-424-7474,Varies,"Purchase Chicago Cards, Transit Cards and Passes.",41.72283,-87.545551,Chicago,"{'latitude': '41.72286278200045', 'longitude': '-87.54549922399968', 'human_address': '{""address"": ""3200 95th Street"", ""city"": ""Chicago"", ""state"": ""IL"", ""zip"": ""60617""}'}",25,42,21202,510,47,47
"95th & Kedzie Currency Exchange, Inc",Ventra Retail Location,3200 W 95th St,,Varies,Varies,41.720977,-87.70183,Evergreen Park,"{'latitude': '41.72074002500045', 'longitude': '-87.70225069599968', 'human_address': '{""address"": ""3200 95th St"", ""city"": ""Evergreen Park"", ""state"": """", ""zip"": ""60805""}'}",,,4459,,,
95th & Ridgeland C E,Ventra Retail Location,6326 West 95TH Streeet,,Varies,Varies,41.7196361,-87.7782201,Oak lawn ,"{'latitude': '41.719520350000494', 'longitude': '-87.78469988999967', 'human_address': '{""address"": ""6326 95TH"", ""city"": ""Oak lawn"", ""state"": """", ""zip"": ""60453""}'}",,,10408,,,
95th & State C E,Ventra Retail Location,9435 South State Street,,Varies,Varies,41.7224089,-87.6235184,Chicago ,"{'latitude': '41.72247075300049', 'longitude': '-87.62375030599969', 'human_address': '{""address"": ""9435 State Street"", ""city"": ""Chicago"", ""state"": """", ""zip"": ""60619""}'}",61,45,21546,554,43,31
95th & State Currency,Currency Exchange,9435 S. State Street,773-785-1117,Varies,Purchase Transit Cards and Passes.,41.722425,-87.623751,Chicago,"{'latitude': '41.72247075300049', 'longitude': '-87.62375030599969', 'human_address': '{""address"": ""9435 State Street"", ""city"": ""Chicago"", ""state"": ""IL"", ""zip"": ""60619""}'}",61,45,21546,554,43,31
95th & Western Currency - Evergreen,Currency Exchange,9627 S. Evergreen Plaza,708-425-0118,Varies,Purchase Transit Cards and Passes.,41.718586,-87.681979,Evergreen Park,"{'latitude': '41.72025115800045', 'longitude': '-87.70058722599964', 'human_address': '{""address"": ""9627 Evergreen Plaza"", ""city"": ""Evergreen Park"", ""state"": ""IL"", ""zip"": ""60805""}'}",,,4459,,,
ABC Choice - 74th & Halsted,Ventra Retail Location,7358 S. Halsted Street   ,,Varies,Varies,41.7602681,-87.6443144,Chicago,"{'latitude': '41.75992690300046', 'longitude': '-87.64429884599969', 'human_address': '{""address"": ""7358 Halsted Street"", ""city"": ""Chicago"", ""state"": """", ""zip"": ""60621""}'}",11,66,21559,511,32,17
ABC Choice - 79th & Halsted,Ventra Retail Location,7861 S. Halsted Street   ,,Varies,Varies,41.7511853,-87.6440259,Chicago,"{'latitude': '41.7509684740005', 'longitude': '-87.64400812299965', 'human_address': '{""address"": ""7861 Halsted Street"", ""city"": ""Chicago"", ""state"": """", ""zip"": ""60620""}'}",59,70,21554,556,31,17
Aby Petroleum,Ventra Retail Location,1008 E. Sibley Boulevard,,Varies,Varies,41.6225835,-87.5937362,Dolton,"{'latitude': '41.6226156030005', 'longitude': '-87.59200580899966', 'human_address': '{""address"": ""1008 Sibley Boulevard"", ""city"": ""Dolton"", ""state"": """", ""zip"": ""60419""}'}",,,26912,,,
Acme Currency,Currency Exchange,205 W. Randolph Street,312-372-7748,Varies,Purchase Transit Cards and Passes.,41.884469,-87.63408,Chicago,"{'latitude': '41.88442641600045', 'longitude': '-87.63407019399966', 'human_address': '{""address"": ""205 Randolph Street"", ""city"": ""Chicago"", ""state"": ""IL"", ""zip"": ""60606""}'}",46,38,14914,92,36,22
Adams/Wabash Rail Station,CTA Rail Station,201-23 S. Wabash Avenue,1-888-YOURCTA,"Cash, Credit, Debit",Purchase new Transit Cards and add value to Transit Cards and Chicago Cards.,41.879507,-87.626037,Chicago,"{'latitude': '41.879434252000465', 'longitude': '-87.62604820299964', 'human_address': '{""address"": ""201 Wabash Avenue"", ""city"": ""Chicago"", ""state"": ""IL"", ""zip"": ""60604""}'}",29,38,14912,367,36,22
Addison,Food Store,940 W. Addison Street,773-396-0262,Varies,Purchase Transit Cards and Passes.,41.947251,-87.653513,Chicago,"{'latitude': '41.93995201700045', 'longitude': '-87.65243587399965', 'human_address': '{""address"": ""940 Addison Street"", ""city"": ""Chicago"", ""state"": ""IL"", ""zip"": ""60657""}'}",22,57,4449,731,25,38
Addison-North Main Rail Station,CTA Rail Station,940 W. Addison Street,1-888-YOURCTA,"Cash, Credit, Debit",Purchase new Transit Cards and add value to Transit Cards and Chicago Cards.,41.947428,-87.653626,Chicago,"{'latitude': '41.94727874500046', 'longitude': '-87.65340298499967', 'human_address': '{""address"": ""940 Addison Street"", ""city"": ""Chicago"", ""state"": ""IL"", ""zip"": ""60613""}'}",53,57,21186,727,25,38
Addison-O'Hare Rail Station,CTA Rail Station,3622 W. Addison Street,1-888-YOURCTA,Cash,Purchase new Transit Cards and add value to Transit Cards and Chicago Cards.,41.94738,-87.71906,Chicago,"{'latitude': '41.946508200000494', 'longitude': '-87.71987563699969', 'human_address': '{""address"": ""3622 Addison Street"", ""city"": ""Chicago"", ""state"": ""IL"", ""zip"": ""60618""}'}",39,16,21538,326,21,15
Addison-Ravenswood Rail Station,CTA Rail Station,1818-20 W. Addison Street,1-888-YOURCTA,"Cash, Credit, Debit",Purchase new Transit Cards and add value to Transit Cards and Chicago Cards.,41.947028,-87.674642,Chicago,"{'latitude': '41.94695104200048', 'longitude': '-87.67445662899968', 'human_address': '{""address"": ""1818 Addison Street"", ""city"": ""Chicago"", ""state"": ""IL"", ""zip"": ""60613""}'}",53,46,21186,644,18,13
Addison Western Currency,Currency Exchange,3605 N. Western Avenue,773-528-8105,Varies,"Purchase Chicago Cards, Transit Cards and Passes.",41.946934,-87.688262,Chicago,"{'latitude': '41.946870651000495', 'longitude': '-87.68822462899965', 'human_address': '{""address"": ""3605 Western Avenue"", ""city"": ""Chicago"", ""state"": ""IL"", ""zip"": ""60618""}'}",39,46,21538,613,18,13
AHS Wireless,Ventra Retail Location,3358 W. Bryn Mawr Avenue,,Varies,Varies,41.9830294,-87.7131899,Chicago,"{'latitude': '41.98306036500048', 'longitude': '-87.71313734599966', 'human_address': '{""address"": ""3358 Bryn Mawr Avenue"", ""city"": ""Chicago"", ""state"": """", ""zip"": ""60659""}'}",50,13,4450,799,38,28
Algonquin Wilke C E ,Ventra Retail Location,1764 W Algonquin Road,,Varies,Varies,42.0578445,-88.0064171,Arlington Heights,"{'latitude': '42.05141259400045', 'longitude': '-87.99381866299967', 'human_address': '{""address"": ""1764 Algonquin Road"", ""city"": ""Arlington Heights"", ""state"": """", ""zip"": ""60004""}'}",,,4093,,,
Amalgamated Bank,Credit Unions/Banks,One W. Monroe,312-822-3225,Varies,Purchase Transit Cards and Passes.,41.880743,-87.62781,Chicago,"{'latitude': '41.88079042200047', 'longitude': '-87.62899891499967', 'human_address': '{""address"": ""One Monroe"", ""city"": ""Chicago"", ""state"": ""IL"", ""zip"": ""60603""}'}",34,38,14311,92,36,22
Amber Food Mart,Ventra Retail Location,3000 W. Addison Street,,Varies,Varies,41.946896,-87.703095,Chicago,"{'latitude': '41.946670336000466', 'longitude': '-87.70309070899964', 'human_address': '{""address"": ""3000 Addison Street"", ""city"": ""Chicago"", ""state"": """", ""zip"": ""60618""}'}",39,16,21538,372,20,2
Americlean Dry Cleaners,Ventra Retail Location,3327B Vollmer Road,,Varies,Varies,41.5280463,-87.6971351,Flossmoor,"{'latitude': '41.5280197240005', 'longitude': '-87.69758416199966', 'human_address': '{""address"": ""3327B Vollmer Road"", ""city"": ""Flossmoor"", ""state"": """", ""zip"": ""60422""}'}",,,26917,,,
Antioch 24 Hr C E,Ventra Retail Location,320 WEST  IL RTE 173,,Varies,Varies,42.4707334,-88.0926334,Chicago,"{'latitude': '42.46838289600049', 'longitude': '-88.1060587939997', 'human_address': '{""address"": ""320 IL RTE"", ""city"": ""Chicago"", ""state"": """", ""zip"": ""60002""}'}",,,4088,,,
"Archer & 63rd Currency Exchange, Inc",Ventra Retail Location,7655 1/2/ 63rd,,Varies,Varies,41.776921,-87.812798,Summit,"{'latitude': '41.78441385500048', 'longitude': '-87.80726580099969', 'human_address': '{""address"": ""7655 1"", ""city"": ""Summit"", ""state"": """", ""zip"": ""60501""}'}",,,2733,,,
Archer Currency,Currency Exchange,4004 S. Archer Avenue,773-523-6300,Varies,"Purchase Chicago Cards, Transit Cards and Passes.",41.820974,-87.693023,Chicago,"{'latitude': '41.82094019600049', 'longitude': '-87.69306009099967', 'human_address': '{""address"": ""4004 Archer Avenue"", ""city"": ""Chicago"", ""state"": ""IL"", ""zip"": ""60632""}'}",56,55,22248,641,1,29
Archer Halsted Currency,Currency Exchange,2514 S. Halsted Street,312-842-0233,Varies,Purchase Transit Cards and Passes.,41.846611,-87.646469,Chicago,"{'latitude': '41.846710991000464', 'longitude': '-87.64646063899966', 'human_address': '{""address"": ""2514 Halsted Street"", ""city"": ""Chicago"", ""state"": ""IL"", ""zip"": ""60608""}'}",40,58,14920,59,48,26
Archer Nash Currency,Currency Exchange,6611 W. Archer Avenue,773-586-2135,Varies,"Purchase Chicago Cards, Transit Cards and Passes.",41.79224,-87.78721,Chicago,"{'latitude': '41.792270259000475', 'longitude': '-87.78725110899967', 'human_address': '{""address"": ""6611 Archer Avenue"", ""city"": ""Chicago"", ""state"": ""IL"", ""zip"": ""60638""}'}",7,53,22268,588,6,35
A&R Food Mart,Ventra Retail Location,5952 W. Grand Avenue,,Varies,Varies,41.9204592,-87.7749735,Chicago,"{'latitude': '41.920511974000476', 'longitude': '-87.77517676099967', 'human_address': '{""address"": ""5952 Grand Avenue"", ""city"": ""Chicago"", ""state"": """", ""zip"": ""60639""}'}",2,19,22615,57,44,4
Argyle El Grocery,Food Store,1120 W. Argyle,773-728-3551,Varies,Purchase Transit Cards and Passes.,41.973262,-87.658638,Chicago,"{'latitude': '41.971470687000476', 'longitude': '-87.66114760999966', 'human_address': '{""address"": ""1120 Argyle"", ""city"": ""Chicago"", ""state"": ""IL"", ""zip"": ""60640""}'}",15,31,22616,633,18,37
Argyle Rail Station,CTA Rail Station,1118 W. Argyle Street,1-888-YOURCTA,Cash,Purchase new Transit Cards and add value to Transit Cards and Chicago Cards.,41.973453,-87.65853,Chicago,"{'latitude': '41.973271051000495', 'longitude': '-87.65824891699964', 'human_address': '{""address"": ""1118 Argyle Street"", ""city"": ""Chicago"", ""state"": ""IL"", ""zip"": ""60640""}'}",15,31,22616,634,16,40
Armitage Kostner Currency,Currency Exchange,4400 W. Armitage Avenue,773-342-0995,Varies,Purchase Transit Cards and Passes.,41.917044,-87.736389,Chicago,"{'latitude': '41.917050917000495', 'longitude': '-87.73655068499966', 'human_address': '{""address"": ""4400 Armitage Avenue"", ""city"": ""Chicago"", ""state"": ""IL"", ""zip"": ""60639""}'}",2,21,22615,75,44,7
Armitage Racine C E,Ventra Retail Location,1164 W. Armitage Ave.,,Varies,Varies,41.9181772,-87.6579069,Chicago ,"{'latitude': '41.918070687000466', 'longitude': '-87.65787053899965', 'human_address': '{""address"": ""1164 Armitage Ave"", ""city"": ""Chicago"", ""state"": """", ""zip"": ""60614""}'}",16,68,21190,797,34,51
Armitage Racine Currency,Currency Exchange,1166 W. Armitage Avenue,773-549-0079,Varies,Purchase Transit Cards and Passes.,41.918038,-87.657992,Chicago,"{'latitude': '41.9180998970005', 'longitude': '-87.65797629099967', 'human_address': '{""address"": ""1166 Armitage Avenue"", ""city"": ""Chicago"", ""state"": ""IL"", ""zip"": ""60614""}'}",16,68,21190,797,34,51
Armitage Rail Station,CTA Rail Station,944-46 W. Armitage Avenue,1-888-YOURCTA,"Cash, Credit, Debit",Purchase new Transit Cards and add value to Transit Cards and Chicago Cards.,41.918217,-87.652644,Chicago,"{'latitude': '41.918119661000446', 'longitude': '-87.65259606199965', 'human_address': '{""address"": ""944 Armitage Avenue"", ""city"": ""Chicago"", ""state"": ""IL"", ""zip"": ""60614""}'}",16,68,21190,744,34,51
Ashland & 47th Currency,Currency Exchange,4655 S. Ashland Avenue,773-523-2111,Varies,Purchase Transit Cards and Passes.,41.808829,-87.664977,Chicago,"{'latitude': '41.80898065700046', 'longitude': '-87.66498012199969', 'human_address': '{""address"": ""4655 Ashland Avenue"", ""city"": ""Chicago"", ""state"": ""IL"", ""zip"": ""60609""}'}",37,59,14924,123,3,12
Ashland & 59th C E,Ventra Retail Location,5913 South Ashland,,Varies,Varies,41.7862889,-87.66399,Chicago ,"{'latitude': '41.77666236500045', 'longitude': '-87.66772594899965', 'human_address': '{""address"": ""5913 Ashland"", ""city"": ""Chicago"", ""state"": """", ""zip"": ""60636""}'}",23,65,22257,280,3,44
Ashland & 59th St Currency,Currency Exchange,5913 S. Ashland Avenue,773-434-7615,Varies,Purchase Transit Cards and Passes.,41.786318,-87.664385,Chicago,"{'latitude': '41.78628069500047', 'longitude': '-87.66439015299966', 'human_address': '{""address"": ""5913 Ashland Avenue"", ""city"": ""Chicago"", ""state"": ""IL"", ""zip"": ""60636""}'}",23,65,22257,276,2,44
Ashland/63rd Rail Station,CTA Rail Station,6315 S. Ashland Avenue,1-888-YOURCTA,Cash,Purchase new Transit Cards and add value to Transit Cards and Chicago Cards.,41.77886,-87.663766,Chicago,"{'latitude': '41.779205498000465', 'longitude': '-87.66418605099966', 'human_address': '{""address"": ""6315 Ashland Avenue"", ""city"": ""Chicago"", ""state"": ""IL"", ""zip"": ""60636""}'}",23,65,22257,279,2,19
Ashland & 74th C E,Ventra Retail Location,7315 South Ashland,,Varies,Varies,41.760829,-87.663271,Chicago ,"{'latitude': '41.742793047000475', 'longitude': '-87.65344826099965', 'human_address': '{""address"": ""7315 Ashland"", ""city"": ""Chicago"", ""state"": """", ""zip"": ""60620""}'}",59,70,21554,530,13,18
Ashland & 79th C E,Ventra Retail Location,7901 South Ashland,,Varies,Varies,41.750155,-87.663043,Chicago ,"{'latitude': '41.742793047000475', 'longitude': '-87.65344826099965', 'human_address': '{""address"": ""7901 Ashland"", ""city"": ""Chicago"", ""state"": """", ""zip"": ""60620""}'}",59,70,21554,530,13,18
Ashland & 79th Currency,Currency Exchange,7901 S. Ashland Avenue,773-874-2439,Varies,Purchase Transit Cards and Passes.,41.750266,-87.663434,Chicago,"{'latitude': '41.75024385900048', 'longitude': '-87.66339815899966', 'human_address': '{""address"": ""7901 Ashland Avenue"", ""city"": ""Chicago"", ""state"": ""IL"", ""zip"": ""60620""}'}",59,70,21554,558,13,18
Ashland Division C E,Ventra Retail Location,1545 W. Division St,,Varies,Varies,41.9032323,-87.6669359,Chicago ,"{'latitude': '41.50300996900046', 'longitude': '-87.66455466199966', 'human_address': '{""address"": ""1545 Division St"", ""city"": ""Chicago"", ""state"": """", ""zip"": ""60622""}'}",,,26902,,,
Ashland & Division Currency,Currency Exchange,1545 W. Division Street,773-276-5460,Varies,"Purchase Chicago Cards, Transit Cards and Passes.",41.903354,-87.66699,Chicago,"{'latitude': '41.90336065000048', 'longitude': '-87.66692056499966', 'human_address': '{""address"": ""1545 Division Street"", ""city"": ""Chicago"", ""state"": ""IL"", ""zip"": ""60642""}'}",49,25,22620,483,11,24
Ashland-Lake Rail Station,CTA Rail Station,1601 W. Lake Street,1-888-YOURCTA,"Cash, Credit, Debit",Purchase new Transit Cards and add value to Transit Cards and Chicago Cards.,41.885269,-87.666969,Chicago,"{'latitude': '41.88535133300047', 'longitude': '-87.66692610299964', 'human_address': '{""address"": ""1601 Lake Street"", ""city"": ""Chicago"", ""state"": ""IL"", ""zip"": ""60607""}'}",44,29,14917,63,46,41
Ashland Liquor and Food,Ventra Retail Location,1554 W. 95th Street,,Varies,Varies,41.7213766,-87.6622601,Chicago,"{'latitude': '41.7213161680005', 'longitude': '-87.66164202199968', 'human_address': '{""address"": ""1554 95th Street"", ""city"": ""Chicago"", ""state"": """", ""zip"": ""60643""}'}",59,72,22212,195,13,18
Ashland-Midway Rail Station,CTA Rail Station,3011 S. Ashland Avenue,1-888-YOURCTA,Cash,Purchase new Transit Cards and add value to Transit Cards and Chicago Cards.,41.839234,-87.665317,Chicago,"{'latitude': '41.839304651000475', 'longitude': '-87.66573640999968', 'human_address': '{""address"": ""3011 Ashland Avenue"", ""city"": ""Chicago"", ""state"": ""IL"", ""zip"": ""60608""}'}",43,33,14920,126,26,26
Augusta Citgo,Ventra Retail Location,1949 W. Augusta Boulevard  ,,Varies,Varies,41.8995447,-87.6764759,Chicago,"{'latitude': '41.89956042300048', 'longitude': '-87.67678064599966', 'human_address': '{""address"": ""1949 Augusta Boulevard"", ""city"": ""Chicago"", ""state"": """", ""zip"": ""60622""}'}",4,25,21560,462,11,24
Aurora New York Street C E,Ventra Retail Location,1001 E. New York Street,,Varies,Varies,41.753837,-88.290825,Aurora,"{'latitude': '41.75408016400047', 'longitude': '-88.29095060799966', 'human_address': '{""address"": ""1001 New York Street"", ""city"": ""Aurora"", ""state"": """", ""zip"": ""60505""}'}",,,3103,,,
"Austin & Archer Currency Exchange, Inc",Ventra Retail Location,6177 S Archer,,Varies,Varies,41.793904,-87.773498,Chicago,"{'latitude': '41.78470062600047', 'longitude': '-87.77286639199968', 'human_address': '{""address"": ""6177 Archer"", ""city"": ""Chicago"", ""state"": """", ""zip"": ""60638""}'}",7,62,22268,265,15,35
"Austin Chicago Currency Exchange, Inc.",Ventra Retail Location,5946 W Chicago,,Varies,Varies,41.895138,-87.774163,Chicago,"{'latitude': '41.902493725000454', 'longitude': '-87.73697664699966', 'human_address': '{""address"": ""5946 Chicago"", ""city"": ""Chicago"", ""state"": """", ""zip"": ""60651""}'}",5,24,4299,99,45,4
Austin-Congress Rail Station,CTA Rail Station,1050 S. Austin Blvd,1-888-YOURCTA,Cash,Purchase new Transit Cards and add value to Transit Cards and Chicago Cards.,41.870851,-87.776812,Oak Park,"{'latitude': '41.866905630000474', 'longitude': '-87.77420271999966', 'human_address': '{""address"": ""1050 Austin Blvd"", ""city"": ""Oak Park"", ""state"": ""IL"", ""zip"": ""60304""}'}",,,26618,,,
Austin-Lake Rail Station,CTA Rail Station,351 N. Austin Blvd,1-888-YOURCTA,Cash,Purchase new Transit Cards and add value to Transit Cards and Chicago Cards.,41.887293,-87.774135,Chicago,"{'latitude': '41.886361614000464', 'longitude': '-87.77479085599964', 'human_address': '{""address"": ""351 Austin Blvd"", ""city"": ""Chicago"", ""state"": ""IL"", ""zip"": ""60644""}'}",32,26,22216,618,7,52
A Western & Lake 24 Hour C E,Ventra Retail Location,149 North Western Ave,,Varies,Varies,41.8846463,-87.6861133,Chicago,"{'latitude': '41.88412358900047', 'longitude': '-87.68646401699965', 'human_address': '{""address"": ""149 Western Ave"", ""city"": ""Chicago"", ""state"": """", ""zip"": ""60612""}'}",28,29,21184,37,46,48
Azteca #2 28th Street C E,Ventra Retail Location,2800 South Cicero Avenue,,Varies,Varies,41.8420043,-87.7441474,Chicago ,"{'latitude': '41.841612625000494', 'longitude': '-87.74398087499969', 'human_address': '{""address"": ""2800 Cicero Avenue"", ""city"": ""Chicago"", ""state"": """", ""zip"": ""60804""}'}",,,4458,,,
Azteca 26th C E,Ventra Retail Location,4327 West 26th Street,,Varies,Varies,41.843871,-87.732119,Chicago ,"{'latitude': '41.84416099100048', 'longitude': '-87.73201069199968', 'human_address': '{""address"": ""4327 26th Street"", ""city"": ""Chicago"", ""state"": """", ""zip"": ""60623""}'}",57,32,21569,205,28,14
Azteca #3 New 39th & Kedzie C E,Ventra Retail Location,3901 South Kedzie Avenue,,Varies,Varies,41.822335,-87.704165,Chicago,"{'latitude': '41.822497959000486', 'longitude': '-87.70442137599969', 'human_address': '{""address"": ""3901 Kedzie Avenue"", ""city"": ""Chicago"", ""state"": """", ""zip"": ""60632""}'}",56,55,22248,196,1,49
A Z Zenith C E,Ventra Retail Location,1938 W. North Ave.,,Varies,Varies,41.910691,-87.6765952,Chicago ,"{'latitude': '41.91048060300045', 'longitude': '-87.67658014799969', 'human_address': '{""address"": ""1938 North Ave"", ""city"": ""Chicago"", ""state"": """", ""zip"": ""60622""}'}",4,25,21560,482,41,24
Babylon,Ventra Retail Location,2023 N. Damen Street,,Varies,Varies,41.918479,-87.677284,Chicago,"{'latitude': '41.92057329200048', 'longitude': '-87.69937931399966', 'human_address': '{""address"": ""2023 Damen Street"", ""city"": ""Chicago"", ""state"": """", ""zip"": ""60647""}'}",1,23,22535,322,41,15
Baltimore Food & Liquor,Food Store,13322 S. Baltimore,773-646-5520,Varies,Purchase Transit Cards and Passes.,41.652964,-87.547152,Chicago,"{'latitude': '41.65278191300047', 'longitude': '-87.55164912699968', 'human_address': '{""address"": ""13322 Baltimore"", ""city"": ""Chicago"", ""state"": ""IL"", ""zip"": ""60633""}'}",26,52,22250,586,47,47
Baltimore Food & Liquors,Ventra Retail Location,13322 S. Baltimore Street,,Varies,Varies,41.652855,-87.547524,Chicago,"{'latitude': '41.65278191300047', 'longitude': '-87.55164912699968', 'human_address': '{""address"": ""13322 Baltimore Street"", ""city"": ""Chicago"", ""state"": """", ""zip"": ""60633""}'}",26,52,22250,586,47,47
Bead In Hand,Ventra Retail Location,145 Harrison Street,,Varies,Varies,41.8726996,-87.7788822,Oak Park,"{'latitude': '41.872700720000466', 'longitude': '-87.77893047799967', 'human_address': '{""address"": ""145 Harrison Street"", ""city"": ""Oak Park"", ""state"": """", ""zip"": ""60304""}'}",,,26618,,,
Bellwood C E,Ventra Retail Location,601 Mannheim Road,708-547-6996,Varies,Varies,41.881248,-87.882864,Bellwood ,"{'latitude': '41.88150234800048', 'longitude': '-87.88319750099964', 'human_address': '{""address"": ""601 Mannheim Road"", ""city"": ""Bellwood"", ""state"": """", ""zip"": ""60104""}'}",,,10503,,,
Bellwood Currency,Currency Exchange,601 Mannheim Road,708-547-6996,Varies,Purchase Transit Cards and Passes.,41.881563,-87.883239,Hillside,"{'latitude': '41.88150234800048', 'longitude': '-87.88319750099964', 'human_address': '{""address"": ""601 Mannheim Road"", ""city"": ""Hillside"", ""state"": ""IL"", ""zip"": ""60104""}'}",,,10503,,,
Belmont & Central Currency,Currency Exchange,5559 W. Belmont,773-685-0202,Varies,"Purchase Chicago Cards, Transit Cards, and Passes AND add value to Chicago Cards using Touch-n-Go.",41.938575,-87.766438,Chicago,"{'latitude': '41.947920757000475', 'longitude': '-87.74363753999967', 'human_address': '{""address"": ""5559 Belmont"", ""city"": ""Chicago"", ""state"": ""IL"", ""zip"": ""60641""}'}",21,15,22618,139,21,25
"Belmont & Central Currency Exchange, Inc",Ventra Retail Location,5559 W Belmont,,Varies,Varies,41.938855,-87.766578,Chicago,"{'latitude': '41.947920757000475', 'longitude': '-87.74363753999967', 'human_address': '{""address"": ""5559 Belmont"", ""city"": ""Chicago"", ""state"": """", ""zip"": ""60641""}'}",21,15,22618,139,21,25
Belmont Cicero Currency,Currency Exchange,3200 N. Cicero Avenue,773-736-0118,Varies,Purchase Transit Cards and Passes.,41.938871,-87.746874,Chicago,"{'latitude': '41.939060663000475', 'longitude': '-87.74687052599967', 'human_address': '{""address"": ""3200 Cicero Avenue"", ""city"": ""Chicago"", ""state"": ""IL"", ""zip"": ""60641""}'}",21,15,22618,115,21,27
Belmont-North Main Rail Station,CTA Rail Station,945 W. Belmont Avenue,1-888-YOURCTA,"Cash, Credit, Debit",Purchase new Transit Cards and Passes AND add value to Transit Cards and Chicago Cards.,41.939751,-87.65338,Chicago,"{'latitude': '41.939855897000484', 'longitude': '-87.65338399999968', 'human_address': '{""address"": ""945 Belmont Avenue"", ""city"": ""Chicago"", ""state"": ""IL"", ""zip"": ""60657""}'}",22,57,4449,681,25,38
Belmont-O'Hare Rail Station,CTA Rail Station,3355 W. Belmont Avenue,1-888-YOURCTA,"Cash, Credit, Debit",Purchase new Transit Cards and add value to Transit Cards and Chicago Cards.,41.938132,-87.712359,Chicago,"{'latitude': '41.93928006900046', 'longitude': '-87.71168990899969', 'human_address': '{""address"": ""3355 Belmont Avenue"", ""city"": ""Chicago"", ""state"": ""IL"", ""zip"": ""60618""}'}",39,22,21538,216,12,15
Belvidere Green Bay C E  #1,Ventra Retail Location,2856 Belvidere Road,,Varies,Varies,42.3494302,-87.8725571,Waukegan,"{'latitude': '42.349480291000475', 'longitude': '-87.87229067799967', 'human_address': '{""address"": ""2856 Belvidere Road"", ""city"": ""Waukegan"", ""state"": """", ""zip"": ""60085""}'}",,,9474,,,
Ben Salem Food Mart,Ventra Retail Location,3452 W. Chicago Avenue   ,,Varies,Varies,41.8954964,-87.7132097,Chicago,"{'latitude': '41.895551294000484', 'longitude': '-87.71306203499967', 'human_address': '{""address"": ""3452 Chicago Avenue"", ""city"": ""Chicago"", ""state"": """", ""zip"": ""60651""}'}",5,24,4299,150,46,41
Berbati Fruit Market,Ventra Retail Location,3956 N. Narragansett Avenue,,Varies,Varies,41.9524142,-87.7865479,Chicago,"{'latitude': '41.95239149100047', 'longitude': '-87.78654953599965', 'human_address': '{""address"": ""3956 Narragansett Avenue"", ""city"": ""Chicago"", ""state"": """", ""zip"": ""60634""}'}",52,17,22254,444,19,25
Berwyn Rail Station,CTA Rail Station,1121 W. Berwyn Avenue,1-888-YOURCTA,Cash,Purchase new Transit Cards and add value to Transit Cards and Chicago Cards.,41.977984,-87.658668,Chicago,"{'latitude': '41.9781262890005', 'longitude': '-87.65867991899967', 'human_address': '{""address"": ""1121 Berwyn Avenue"", ""city"": ""Chicago"", ""state"": ""IL"", ""zip"": ""60640""}'}",15,76,22616,160,16,40
Best Food Mart,Ventra Retail Location,2451 N. Lincoln Avenue,,Varies,Varies,41.9267582,-87.650356,Chicago,"{'latitude': '41.92656070300046', 'longitude': '-87.65031041499964', 'human_address': '{""address"": ""2451 Lincoln Avenue"", ""city"": ""Chicago"", ""state"": """", ""zip"": ""60614""}'}",16,68,21190,769,34,51
Better Business Planning,Ventra Retail Location,125 W. Orchard Street,,Varies,Varies,41.972161,-88.013789,Itasca,"{'latitude': '41.97183042100045', 'longitude': '-88.01378060599967', 'human_address': '{""address"": ""125 Orchard Street"", ""city"": ""Itasca"", ""state"": """", ""zip"": ""60143""}'}",,,15845,,,
Beverly Hills Food Mart,Ventra Retail Location,2156 W. 95th Street,,Varies,Varies,41.721274,-87.677047,Chicago,"{'latitude': '41.72108110100049', 'longitude': '-87.67704106199966', 'human_address': '{""address"": ""2156 95th Street"", ""city"": ""Chicago"", ""state"": """", ""zip"": ""60643""}'}",59,71,22212,627,42,33
Bharat Bazaar,Ventra Retail Location,3900 W. Lawrence Avenue   ,,Varies,Varies,41.968368,-87.7257627,Chicago,"{'latitude': '41.9682862680005', 'longitude': '-87.72571952799967', 'human_address': '{""address"": ""3900 Lawrence Avenue"", ""city"": ""Chicago"", ""state"": """", ""zip"": ""60625""}'}",20,14,21849,120,12,28
Big Daddy Food Mart,Ventra Retail Location,3845 W. Roosevelt Road   ,,Varies,Varies,41.865929,-87.721883,Chicago,"{'latitude': '41.86622028500045', 'longitude': '-87.72188097799966', 'human_address': '{""address"": ""3845 Roosevelt Road"", ""city"": ""Chicago"", ""state"": """", ""zip"": ""60624""}'}",30,30,21572,98,14,36
Big Dollar Plus,Ventra Retail Location,7119 S. State Street,,Varies,Varies,41.7652535,-87.6248732,Chicago,"{'latitude': '41.764850554000475', 'longitude': '-87.62486375599968', 'human_address': '{""address"": ""7119 State Street"", ""city"": ""Chicago"", ""state"": """", ""zip"": ""60619""}'}",61,67,21546,474,32,31
Blue Island Currency,Currency Exchange,12956 S. Western Avenue,708-388-0358,Varies,Purchase Transit Cards and Passes.,41.657763,-87.680081,Blue Island,"{'latitude': '41.65753347000049', 'longitude': '-87.68011009799966', 'human_address': '{""address"": ""12956 Western Avenue"", ""city"": ""Blue Island"", ""state"": ""IL"", ""zip"": ""60406""}'}",,,26633,,,
Bolingbrook C E,Ventra Retail Location,275 S. Bolingbrook Dr.,,Varies,Varies,41.6915328,-88.0683483,Bolingbrook,"{'latitude': '41.70448035600049', 'longitude': '-88.06852945399964', 'human_address': '{""address"": ""275 Bolingbrook Dr"", ""city"": ""Bolingbrook"", ""state"": """", ""zip"": ""60440""}'}",,,9709,,,
Booth C E Inc,Ventra Retail Location,14126 South Bell Road,,Varies,Varies,41.6311219,-87.9312066,Homer Glen,"{'latitude': '41.63143259800046', 'longitude': '-87.93115824899968', 'human_address': '{""address"": ""14126 Bell Road"", ""city"": ""Homer Glen"", ""state"": """", ""zip"": ""60491""}'}",,,2731,,,
Booth C E Inc I I,Ventra Retail Location,1063 East 9th Street,,Varies,Varies,41.5956512,-88.0368467,Lockport ,"{'latitude': '41.59445597100046', 'longitude': '-88.03842891399967', 'human_address': '{""address"": ""1063 9th Street"", ""city"": ""Lockport"", ""state"": """", ""zip"": ""60441""}'}",,,9711,,,
Bosell Imports,Ventra Retail Location,1905 Church Street,,Varies,Varies,42.048633,-87.699329,Evanston,"{'latitude': '42.04837077800045', 'longitude': '-87.69947023799966', 'human_address': '{""address"": ""1905 Church Street"", ""city"": ""Evanston"", ""state"": """", ""zip"": ""60201""}'}",,,26293,,,
BP Station - Congress,Ventra Retail Location,50 W. Congress Parkway,,Varies,Varies,41.8757145,-87.6294033,Chicago,"{'latitude': '41.87572878900045', 'longitude': '-87.62933890099964', 'human_address': '{""address"": ""50 Congress Parkway"", ""city"": ""Chicago"", ""state"": """", ""zip"": ""60605""}'}",35,38,14913,92,10,48
Brickyard Currency,Currency Exchange,"2841 N. Narragansett Avenue, Unit B",773-237-0999,Varies,Purchase Transit Cards and Passes.,41.932229,-87.785731,Chicago,"{'latitude': '41.93189968600046', 'longitude': '-87.78568605899966', 'human_address': '{""address"": ""2841 Narragansett Avenue"", ""city"": ""Chicago"", ""state"": ""IL"", ""zip"": ""60634""}'}",52,19,22254,81,44,52
Bridgeview C E,Ventra Retail Location,8725-27 South Harlem Ave.,,Varies,Varies,41.7310038,-87.7989165,Bridgeview,"{'latitude': '41.73877391700046', 'longitude': '-87.80532792799966', 'human_address': '{""address"": ""8725 27 South Harlem Ave"", ""city"": ""Bridgeview"", ""state"": """", ""zip"": ""60455""}'}",,,10411,,,
Broadview C E,Ventra Retail Location,1726 Roosevelt Road,,Varies,Varies,41.8640257,-87.8533774,Broadview,"{'latitude': '41.86400983900046', 'longitude': '-87.85384517699964', 'human_address': '{""address"": ""1726 Roosevelt Road"", ""city"": ""Broadview"", ""state"": """", ""zip"": ""60155""}'}",,,14770,,,
Broadview Currency,Currency Exchange,1726 W. Roosevelt Road,708-343-0829,Varies,Purchase Transit Cards and Passes.,41.866843,-87.669985,Chicago,"{'latitude': '41.86693837900049', 'longitude': '-87.66992817799968', 'human_address': '{""address"": ""1726 Roosevelt Road"", ""city"": ""Chicago"", ""state"": ""IL"", ""zip"": ""60608""}'}",28,29,14920,5,46,48
Broadway Foster C E,Ventra Retail Location,5153 N. Broadway,773-561-3136,Varies,Varies,41.9761645,-87.6594724,Chicago ,"{'latitude': '41.971470687000476', 'longitude': '-87.66114760999966', 'human_address': '{""address"": ""5153 Broadway"", ""city"": ""Chicago"", ""state"": """", ""zip"": ""60640""}'}",15,31,22616,633,18,37
Broadway Foster Currency,Currency Exchange,5153 N. Broadway,773-561-3136,Varies,"Purchase Chicago Cards, Transit Cards and Passes.",41.976163,-87.659863,Chicago,"{'latitude': '41.971470687000476', 'longitude': '-87.66114760999966', 'human_address': '{""address"": ""5153 Broadway"", ""city"": ""Chicago"", ""state"": ""IL"", ""zip"": ""60640""}'}",15,31,22616,633,18,37
Broadway Irving Park C E,Ventra Retail Location,3959 North Broadway,,Varies,Varies,41.954303,-87.650092,Chicago,"{'latitude': '41.95275240300049', 'longitude': '-87.65692860999968', 'human_address': '{""address"": ""3959 Broadway"", ""city"": ""Chicago"", ""state"": """", ""zip"": ""60613""}'}",53,57,21186,725,25,38
Broadway & Irving Park Currency,Currency Exchange,3959 N. Broadway,773-248-0078,Varies,Purchase Transit Cards and Passes.,41.954454,-87.65047,Chicago,"{'latitude': '41.95275240300049', 'longitude': '-87.65692860999968', 'human_address': '{""address"": ""3959 Broadway"", ""city"": ""Chicago"", ""state"": ""IL"", ""zip"": ""60613""}'}",53,57,21186,725,25,38
Bryn Mawr L Currency,Currency Exchange,1117 W. Bryn Mawr Avenue,773-784-3363,Varies,Purchase Transit Cards and Passes.,41.983647,-87.658755,Chicago,"{'latitude': '41.98362638500049', 'longitude': '-87.65885369899968', 'human_address': '{""address"": ""1117 Bryn Mawr Avenue"", ""city"": ""Chicago"", ""state"": ""IL"", ""zip"": ""60660""}'}",15,76,22616,145,16,40
Bryn Mawr Rail Station,CTA Rail Station,1119 W. Bryn Mawr Avenue,1-888-YOURCTA,"Cash, Credit, Debit",Purchase new Transit Cards and add value to Transit Cards and Chicago Cards.,41.983504,-87.65884,Chicago,"{'latitude': '41.97307387300049', 'longitude': '-87.87721840699965', 'human_address': '{""address"": ""1119 Bryn Mawr Avenue"", ""city"": ""Chicago"", ""state"": ""IL"", ""zip"": ""60640""}'}",38,75,16197,,29,34
Burnham Grocers,Ventra Retail Location,828 S. Wabash Avenue,,Varies,Varies,41.8711417,-87.6262106,Chicago,"{'latitude': '41.87160029100045', 'longitude': '-87.62590046499969', 'human_address': '{""address"": ""828 Wabash Avenue"", ""city"": ""Chicago"", ""state"": """", ""zip"": ""60605""}'}",35,38,14913,368,10,48
Burnham Quick Mart,Food Store,1201 N. Austin Avenue,773-378-0796,Varies,Purchase Transit Cards and Passes.,41.902088,-87.775365,Oak Park,"{'latitude': '41.88910241700046', 'longitude': '-87.79123707499969', 'human_address': '{""address"": ""1201 Austin Avenue"", ""city"": ""Oak Park"", ""state"": ""IL"", ""zip"": ""60302""}'}",,,26615,,,
Buy Low Food & Liquor,Ventra Retail Location,849 W. 87th Street,,Varies,Varies,41.7360202,-87.6456321,Chicago,"{'latitude': '41.73601580000047', 'longitude': '-87.64575035599967', 'human_address': '{""address"": ""849 87th Street"", ""city"": ""Chicago"", ""state"": """", ""zip"": ""60620""}'}",59,70,21554,533,13,18
Cactus Food and Liquor,Ventra Retail Location,3358 W. Irving Park Road  ,,Varies,Varies,41.95417,-87.712704,Chicago,"{'latitude': '41.953870948000485', 'longitude': '-87.71269037399969', 'human_address': '{""address"": ""3358 Irving Park Road"", ""city"": ""Chicago"", ""state"": """", ""zip"": ""60618""}'}",39,16,21538,23,20,2
California & 63rd Currency,Currency Exchange,2756 W. 63rd Street,773-778-3838,Varies,"Purchase Chicago Cards, Transit Cards and Passes.",41.779118,-87.693247,Chicago,"{'latitude': '41.779154675000484', 'longitude': '-87.6926679239997', 'human_address': '{""address"": ""2756 63rd Street"", ""city"": ""Chicago"", ""state"": ""IL"", ""zip"": ""60629""}'}",58,64,21867,111,2,44
"California & 63rd Currency Exchange, Inc",Ventra Retail Location,2756 W 63rd St,,Varies,Varies,41.77899282,-87.69304276,Chicago,"{'latitude': '41.779154675000484', 'longitude': '-87.6926679239997', 'human_address': '{""address"": ""2756 63rd St"", ""city"": ""Chicago"", ""state"": """", ""zip"": ""60629""}'}",58,64,21867,111,2,44
California Armitage Currency,Currency Exchange,2759 W. Armitage Avenue,773-235-1690,Varies,Purchase Transit Cards and Passes.,41.91749,-87.697139,Chicago,"{'latitude': '41.91749520500048', 'longitude': '-87.69649989999965', 'human_address': '{""address"": ""2759 Armitage Avenue"", ""city"": ""Chicago"", ""state"": ""IL"", ""zip"": ""60647""}'}",1,23,22535,180,41,24
"California & Division Currency Exchange, Inc",Ventra Retail Location,2745 W Division,,Varies,Varies,41.902796,-87.696186,Chicago,"{'latitude': '41.90223302400045', 'longitude': '-87.68066971999968', 'human_address': '{""address"": ""2745 Division"", ""city"": ""Chicago"", ""state"": """", ""zip"": ""60622""}'}",4,25,21560,476,11,16
California-Douglas Rail Station,CTA Rail Station,2011 S. California Avenue,1-888-YOURCTA,Cash,Purchase new Transit Cards and add value to Transit Cards and Chicago Cards.,41.854109,-87.694774,Chicago,"{'latitude': '41.85431514200047', 'longitude': '-87.69548041899964', 'human_address': '{""address"": ""2011 California Avenue"", ""city"": ""Chicago"", ""state"": ""IL"", ""zip"": ""60608""}'}",43,32,14920,203,1,11
California-Lake Rail Station,CTA Rail Station,2800 W. Lake Street,1-888-YOURCTA,Cash,Purchase new Transit Cards and add value to Transit Cards and Chicago Cards.,41.88422,-87.696234,Chicago,"{'latitude': '41.88434528200048', 'longitude': '-87.69650232799967', 'human_address': '{""address"": ""2800 Lake Street"", ""city"": ""Chicago"", ""state"": ""IL"", ""zip"": ""60612""}'}",28,28,21184,50,46,48
California/Milwaukee Rail Station,CTA Rail Station,2211 N. California Avenue,1-888-YOURCTA,"Cash, Credit, Debit",Purchase new Transit Cards and add value to Transit Cards and Chicago Cards.,41.921939,-87.69689,Chicago,"{'latitude': '41.92231491600046', 'longitude': '-87.69730911499965', 'human_address': '{""address"": ""2211 California Avenue"", ""city"": ""Chicago"", ""state"": ""IL"", ""zip"": ""60647""}'}",1,23,22535,294,41,24
Cal Touhy Currency,Currency Exchange,7201 N. California Avenue,773-761-0600,Varies,Purchase Transit Cards and Passes.,42.012113,-87.699718,Chicago,"{'latitude': '42.01218195600046', 'longitude': '-87.69967060199969', 'human_address': '{""address"": ""7201 California Avenue"", ""city"": ""Chicago"", ""state"": ""IL"", ""zip"": ""60645""}'}",12,20,22528,359,27,42
Calumet Currency,Currency Exchange,8718 S. Commercial Avenue,773-721-0242,Varies,Purchase Transit Cards and Passes.,41.736779,-87.551417,Chicago,"{'latitude': '41.73672103000047', 'longitude': '-87.55141001899966', 'human_address': '{""address"": ""8718 Commercial Avenue"", ""city"": ""Chicago"", ""state"": ""IL"", ""zip"": ""60617""}'}",25,42,21202,509,47,47
Calumet Park Currency,Currency Exchange,1431 W. 127th Street,708-385-2931,Varies,Purchase Transit Cards and Passes.,41.662997,-87.657359,Calumet Park,"{'latitude': '41.662967755000466', 'longitude': '-87.65743133899969', 'human_address': '{""address"": ""1431 127th Street"", ""city"": ""Calumet Park"", ""state"": ""IL"", ""zip"": ""60827""}'}",,,4460,313,,
Caribbean American Baking Co.,Ventra Retail Location,1539 W. Howard Street,,Varies,Varies,42.01916,-87.669708,Chicago,"{'latitude': '42.01936091700048', 'longitude': '-87.66970102299967', 'human_address': '{""address"": ""1539 Howard Street"", ""city"": ""Chicago"", ""state"": """", ""zip"": ""60626""}'}",9,10,21853,357,5,3
Carnicerias Jimenez - Fullerton,Ventra Retail Location,3850 W Fullerton Avenue,,Varies,Varies,41.9245912,-87.7236505,Chicago,"{'latitude': '41.92455650700049', 'longitude': '-87.72346608499964', 'human_address': '{""address"": ""3850 Fullerton Avenue"", ""city"": ""Chicago"", ""state"": """", ""zip"": ""60647""}'}",1,23,22535,186,17,27
Carnicerias Jimenez - North Ave,Ventra Retail Location,4204 W. North Avenue,,Varies,Varies,41.9103496,-87.7315605,Chicago,"{'latitude': '41.90982034500047', 'longitude': '-87.73200032199969', 'human_address': '{""address"": ""4204 North Avenue"", ""city"": ""Chicago"", ""state"": """", ""zip"": ""60639""}'}",2,24,22615,286,49,27
Carniceria y Fruiteria El Mitote,Ventra Retail Location,4459 W. Belmont Avenue,,Varies,Varies,41.9386811,-87.7392503,Chicago ,"{'latitude': '41.938930454000456', 'longitude': '-87.73924011199966', 'human_address': '{""address"": ""4459 Belmont Avenue"", ""city"": ""Chicago"", ""state"": """", ""zip"": ""60641""}'}",21,21,22618,411,17,7
"Central Chicago Currency Exchange, Inc",Ventra Retail Location,5601 Chicago,,Varies,Varies,41.894818,-87.765634,Chicago,"{'latitude': '41.902493725000454', 'longitude': '-87.73697664699966', 'human_address': '{""address"": ""5601 Chicago"", ""city"": ""Chicago"", ""state"": """", ""zip"": ""60651""}'}",5,24,4299,99,45,4
Central-Evanston Rail Station,CTA Rail Station,1022 W. Central Avenue,1-888-YOURCTA,"Cash, Credit, Debit",Purchase new Transit Cards and add value to Transit Cards and Chicago Cards.,42.063987,-87.685617,Evanston,"{'latitude': '42.06417934900048', 'longitude': '-87.68596125599964', 'human_address': '{""address"": ""1022 Central Avenue"", ""city"": ""Evanston"", ""state"": ""IL"", ""zip"": ""60201""}'}",,,26293,,,
Central & Fullerton Currency,Currency Exchange,5546 W. Fullerton Avenue,773-237-0332,Varies,Purchase Transit Cards and Passes.,41.923988,-87.765455,Chicago,"{'latitude': '41.924000332000446', 'longitude': '-87.76540037799964', 'human_address': '{""address"": ""5546 Fullerton Avenue"", ""city"": ""Chicago"", ""state"": ""IL"", ""zip"": ""60639""}'}",2,19,22615,80,21,27
Central-Lake Rail Station,CTA Rail Station,350 N. Central Avenue,1-888-YOURCTA,Cash,Purchase new Transit Cards and add value to Transit Cards and Chicago Cards.,41.887389,-87.76565,Chicago,"{'latitude': '41.886520428000495', 'longitude': '-87.76511637499965', 'human_address': '{""address"": ""350 Central Avenue"", ""city"": ""Chicago"", ""state"": ""IL"", ""zip"": ""60644""}'}",32,26,22216,618,7,52
Central Madison Currency,Currency Exchange,5601 W. Madison Street,773-261-2355,Varies,Purchase Transit Cards and Passes.,41.880245,-87.764945,Chicago,"{'latitude': '41.88025047500048', 'longitude': '-87.76518029299967', 'human_address': '{""address"": ""5601 Madison Street"", ""city"": ""Chicago"", ""state"": ""IL"", ""zip"": ""60644""}'}",32,26,22216,618,7,52
"Central & Milwaukee Currency Exchange, Inc.",Ventra Retail Location,5306 N. Milwaukee,,Varies,Varies,41.976792,-87.768853,Chicago,"{'latitude': '41.9695936440005', 'longitude': '-87.75901885899964', 'human_address': '{""address"": ""5306 Milwaukee"", ""city"": ""Chicago"", ""state"": """", ""zip"": ""60630""}'}",48,11,21869,129,50,20
Central Park Rail Station,CTA Rail Station,1915 S. Central Park Avenue,1-888-YOURCTA,Cash,Purchase new Transit Cards and add value to Transit Cards and Chicago Cards.,41.853839,-87.714842,Chicago,"{'latitude': '41.854203603000485', 'longitude': '-87.71498633799968', 'human_address': '{""address"": ""1915 Central Park Avenue"", ""city"": ""Chicago"", ""state"": ""IL"", ""zip"": ""60623""}'}",57,30,21569,157,14,36
Cermak & Central Currency,Currency Exchange,5608 W. Cermak,708-863-6500,Varies,"Purchase Chicago Cards, Transit Cards and Passes.",41.851063,-87.764325,Cicero,"{'latitude': '41.8464431540005', 'longitude': '-87.75985744499968', 'human_address': '{""address"": ""5608 Cermak"", ""city"": ""Cicero"", ""state"": ""IL"", ""zip"": ""60804""}'}",,,4458,,,
"Cermak & Central Currency Exchange, Inc",Ventra Retail Location,5608 W Cermak,,Varies,Varies,41.851365,-87.764383,Cicero,"{'latitude': '41.8464431540005', 'longitude': '-87.75985744499968', 'human_address': '{""address"": ""5608 Cermak"", ""city"": ""Cicero"", ""state"": """", ""zip"": ""60804""}'}",,,4458,,,
Cermak-Chinatown Rail Station,CTA Rail Station,138 W. Cermak Road,1-888-YOURCTA,"Cash, Credit, Debit",Purchase new Transit Cards and add value to Transit Cards and Chicago Cards.,41.853206,-87.630968,Chicago,"{'latitude': '41.85299652000049', 'longitude': '-87.63077933099964', 'human_address': '{""address"": ""138 Cermak Road"", ""city"": ""Chicago"", ""state"": ""IL"", ""zip"": ""60616""}'}",40,35,21194,3,26,8
"Cermak-Cicero Currency Exchange, Inc",Ventra Retail Location,4801 W Cermak,,Varies,Varies,41.851111,-87.744488,Cicero,"{'latitude': '41.8464431540005', 'longitude': '-87.75985744499968', 'human_address': '{""address"": ""4801 Cermak"", ""city"": ""Cicero"", ""state"": """", ""zip"": ""60804""}'}",,,4458,,,
Cermak Damen Currency,Currency Exchange,1958 W. Cermak Road,773-847-2028,Varies,"Purchase Chicago Cards, Transit Cards and Passes.",41.852178,-87.675718,Chicago,"{'latitude': '41.85219009400049', 'longitude': '-87.67567099799965', 'human_address': '{""address"": ""1958 Cermak Road"", ""city"": ""Chicago"", ""state"": ""IL"", ""zip"": ""60608""}'}",43,33,14920,366,26,8
Cermak & Home C E,Ventra Retail Location,6948 West Cermak Road,,Varies,Varies,41.8505255,-87.7975121,Berwyn,"{'latitude': '41.85051006700047', 'longitude': '-87.79821046699965', 'human_address': '{""address"": ""6948 Cermak Road"", ""city"": ""Berwyn"", ""state"": """", ""zip"": ""60402""}'}",,,26624,,,
Cermak & Laramie C E,Ventra Retail Location,5140 W Cermak,,Varies,Varies,41.8512124,-87.7532318,Cicero,"{'latitude': '41.8464431540005', 'longitude': '-87.75985744499968', 'human_address': '{""address"": ""5140 Cermak"", ""city"": ""Cicero"", ""state"": """", ""zip"": ""60804""}'}",,,4458,,,
Cermak Ridgeland Currency,Currency Exchange,6348 W. Cermak,708-484-8440,Varies,"Purchase Chicago Cards, Transit Cards and Passes.",41.850793,-87.782712,Berwyn,"{'latitude': '41.85082260700045', 'longitude': '-87.78267713199966', 'human_address': '{""address"": ""6348 Cermak"", ""city"": ""Berwyn"", ""state"": ""IL"", ""zip"": ""60402""}'}",,,26624,,,
"Cermak Ridgeland Currency Exchange, Inc",Ventra Retail Location,6348 W Cermak,,Varies,Varies,41.8507891,-87.7826462,Berwyn,"{'latitude': '41.85082260700045', 'longitude': '-87.78267713199966', 'human_address': '{""address"": ""6348 Cermak"", ""city"": ""Berwyn"", ""state"": """", ""zip"": ""60402""}'}",,,26624,,,
Cermak Wabash,Ventra Retail Location,2109 S. Wabash Ave,,Varies,Varies,41.853926,-87.625128,Chicago,"{'latitude': '41.853920822000475', 'longitude': '-87.62549025299967', 'human_address': '{""address"": ""2109 Wabash Ave"", ""city"": ""Chicago"", ""state"": """", ""zip"": ""60616""}'}",40,34,21194,374,9,48
Cermak Wabash Currency,Currency Exchange,2109 S. Wabash,312-842-4910,Varies,Purchase Transit Cards and Passes.,41.85395,-87.625523,Chicago,"{'latitude': '41.8460738280005', 'longitude': '-87.62909884999965', 'human_address': '{""address"": ""2109 Wabash"", ""city"": ""Chicago"", ""state"": ""IL"", ""zip"": ""60616""}'}",40,34,21194,193,9,12
Charlie's Supermarket,Ventra Retail Location,2941 W. Montrose Avenue,,Varies,Varies,41.9612062,-87.7025967,Chicago,"{'latitude': '41.96121222400046', 'longitude': '-87.70237893099966', 'human_address': '{""address"": ""2941 Montrose Avenue"", ""city"": ""Chicago"", ""state"": """", ""zip"": ""60618""}'}",39,16,21538,214,20,2
Charlies Supermarket Inc.,Food Store,2941 W Montrose Avenue,773-539-6992,Varies,Purchase Transit Cards and Passes.,41.961224,-87.702589,Chicago,"{'latitude': '41.96121222400046', 'longitude': '-87.70237893099966', 'human_address': '{""address"": ""2941 Montrose Avenue"", ""city"": ""Chicago"", ""state"": ""IL"", ""zip"": ""60618""}'}",39,16,21538,214,20,2
"Chicago-Cicero Currency Exchange, Inc",Ventra Retail Location,759 N Cicero,,Varies,Varies,41.894781,-87.745425,Chicago,"{'latitude': '41.881172782000476', 'longitude': '-87.75881898899968', 'human_address': '{""address"": ""759 Cicero"", ""city"": ""Chicago"", ""state"": """", ""zip"": ""60644""}'}",32,26,22216,674,7,11
Chicago Cultural Center,Other,78 E. Washington,312-742-7389,"Cash, Credit, Debit",Purchase 3 day and 7 day passes.,41.883225,-87.625051,Chicago,"{'latitude': '41.8828629890005', 'longitude': '-87.62937692999964', 'human_address': '{""address"": ""78 Washington Boulevard"", ""city"": ""Chicago"", ""state"": ""IL"", ""zip"": ""60602""}'}",41,38,14310,92,36,22
Chicago/Franklin Rail Station,CTA Rail Station,300-02 W. Chicago Avenue,1-888-YOURCTA,"Cash, Credit, Debit",Purchase new Transit Cards and add value to Transit Cards and Chicago Cards.,41.89681,-87.635924,Chicago,"{'latitude': '42.02236216900047', 'longitude': '-87.67703618299964', 'human_address': '{""address"": ""300 Chicago Avenue"", ""city"": ""Chicago"", ""state"": ""IL"", ""zip"": ""60610""}'}",,,26609,,,
Chicago Heights Check Cashers,Ventra Retail Location,82 Illinois Street,708-754-3645,Varies,Varies,41.499899,-87.636068,Chicago Heights,"{'latitude': '41.49968563200048', 'longitude': '-87.63616133499966', 'human_address': '{""address"": ""82 Illinois Street"", ""city"": ""Chicago Heights"", ""state"": """", ""zip"": ""60411""}'}",,,26902,,,
Chicago Heights Currency,Currency Exchange,82 Illinois Street,708-754-3645,Varies,Purchase Transit Cards and Passes.,41.499656,-87.63618,Chicago Heights,"{'latitude': '41.49968563200048', 'longitude': '-87.63616133499966', 'human_address': '{""address"": ""82 Illinois Street"", ""city"": ""Chicago Heights"", ""state"": ""IL"", ""zip"": ""60411""}'}",,,26902,,,
Chicago Jackson C E,Ventra Retail Location,360 N Chicago,,Varies,Varies,41.531255,-88.081391,Joliet,"{'latitude': '41.527863005000484', 'longitude': '-88.17967622199967', 'human_address': '{""address"": ""360 Chicago"", ""city"": ""Joliet"", ""state"": """", ""zip"": ""60431""}'}",,,9303,,,
Chicago Kedzie Currency,Currency Exchange,801 N. Kedzie Avenue,773-533-3225,Varies,Purchase Transit Cards and Passes.,41.895618,-87.706558,Chicago,"{'latitude': '41.90223302400045', 'longitude': '-87.68066971999968', 'human_address': '{""address"": ""801 Kedzie Avenue"", ""city"": ""Chicago"", ""state"": ""IL"", ""zip"": ""60622""}'}",4,25,21560,476,11,16
Chicago Laramie Currency,Currency Exchange,5135 W. Chicago,773-287-1438,Varies,"Purchase Chicago Cards, Transit Cards and Passes.",41.89495,-87.754596,Chicago,"{'latitude': '41.881172782000476', 'longitude': '-87.75881898899968', 'human_address': '{""address"": ""5135 Chicago"", ""city"": ""Chicago"", ""state"": ""IL"", ""zip"": ""60644""}'}",32,26,22216,674,7,11
"Chicago Laramie Currency Exchange, Inc",Ventra Retail Location,5135 W Chicago,,Varies,Varies,41.894882,-87.754551,Chicago,"{'latitude': '41.902493725000454', 'longitude': '-87.73697664699966', 'human_address': '{""address"": ""5135 Chicago"", ""city"": ""Chicago"", ""state"": """", ""zip"": ""60651""}'}",5,24,4299,99,45,4
Chicago/Milwaukee Rail Station,CTA Rail Station,800 N. Milwaukee Avenue,1-888-YOURCTA,Cash,Purchase new Transit Cards and add value to Transit Cards and Chicago Cards.,41.896075,-87.655214,Chicago,"{'latitude': '41.89652070200049', 'longitude': '-87.65585058799968', 'human_address': '{""address"": ""800 Milwaukee Avenue"", ""city"": ""Chicago"", ""state"": ""IL"", ""zip"": ""60642""}'}",49,25,22620,109,46,41
Chicago Office of Tourism,Other,"78 E. Washington Boulevard, 4th Floor",312-742-7389,Varies,Purchase Transit Cards and Passes.,41.883225,-87.625051,Chicago,"{'latitude': '41.8828629890005', 'longitude': '-87.62937692999964', 'human_address': '{""address"": ""78 Washington Boulevard"", ""city"": ""Chicago"", ""state"": ""IL"", ""zip"": ""60602""}'}",41,38,14310,92,36,22
Chicago Rush Currency,Currency Exchange,62 E. Chicago Avenue,312-944-4643,Varies,"Purchase Chicago Cards, Transit Cards and Passes.",41.896711,-87.625761,Chicago,"{'latitude': '41.896720047000485', 'longitude': '-87.62581058699965', 'human_address': '{""address"": ""62 Chicago Avenue"", ""city"": ""Chicago"", ""state"": ""IL"", ""zip"": ""60611""}'}",6,37,21182,104,36,22
Chicago Shipping Store,Ventra Retail Location,2248 W. Belmont Avenue,,Varies,Varies,41.9396204,-87.6851399,Chicago,"{'latitude': '41.93952482500049', 'longitude': '-87.68439668599967', 'human_address': '{""address"": ""2248 Belmont Avenue"", ""city"": ""Chicago"", ""state"": """", ""zip"": ""60618""}'}",39,46,21538,615,40,16
Chicago/State Rail Station,CTA Rail Station,800 N. State Street,1-888-YOURCTA,"Cash, Credit, Debit",Purchase new Transit Cards and Passes AND add value to Transit Cards and Chicago Cards.,41.896671,-87.628176,Chicago,"{'latitude': '41.51623232000048', 'longitude': '-87.61631377199967', 'human_address': '{""address"": ""800 State Street"", ""city"": ""Chicago"", ""state"": ""IL"", ""zip"": ""60611""}'}",,,26902,,,
Choose Chicago,<Null>,72 East Randolph,312-742-1282,Varies,Purchase Transit Cards and Passes.,41.884572,-87.625492,Chicago,"{'latitude': '41.88079042200047', 'longitude': '-87.62899891499967', 'human_address': '{""address"": ""72 Randolph"", ""city"": ""Chicago"", ""state"": ""IL"", ""zip"": ""60603""}'}",34,38,14311,92,36,22
"Cicero & 47th Currency Exchange, Inc",Ventra Retail Location,4715 S. Cicero,,Varies,Varies,41.807168,-87.742766,Chicago,"{'latitude': '41.80875023100049', 'longitude': '-87.70980732699968', 'human_address': '{""address"": ""4715 Cicero"", ""city"": ""Chicago"", ""state"": """", ""zip"": ""60632""}'}",56,55,22248,640,8,49
Cicero Archer Currency,Currency Exchange,5354 1/2 S. Archer,773-735-4420,Varies,"Purchase Chicago Cards, Transit Cards and Passes.",41.798759,-87.742315,Chicago,"{'latitude': '41.80875023100049', 'longitude': '-87.70980732699968', 'human_address': '{""address"": ""5354 1"", ""city"": ""Chicago"", ""state"": ""IL"", ""zip"": ""60632""}'}",56,55,22248,640,8,49
"Cicero-Archer Currency Exchange, Inc",Ventra Retail Location,5354 1/2 S. Archer,773-735-4420,Varies,Varies,41.7987815,-87.7422259,Chicago,"{'latitude': '41.80875023100049', 'longitude': '-87.70980732699968', 'human_address': '{""address"": ""5354 1"", ""city"": ""Chicago"", ""state"": """", ""zip"": ""60632""}'}",56,55,22248,640,8,49
Cicero-Congress Rail Station,CTA Rail Station,720 S. Cicero Avenue,1-888-YOURCTA,Cash,Purchase new Transit Cards and add value to Transit Cards and Chicago Cards.,41.871574,-87.745154,Chicago,"{'latitude': '41.893792033000466', 'longitude': '-87.74580456299964', 'human_address': '{""address"": ""720 Cicero Avenue"", ""city"": ""Chicago"", ""state"": ""IL"", ""zip"": ""60644""}'}",32,26,22216,695,45,11
Cicero-Douglas Rail Station,CTA Rail Station,2133 S. 48th Court,1-888-YOURCTA,"Cash, Credit, Debit",Purchase new Transit Cards and add value to Transit Cards and Chicago Cards.,41.85182,-87.745336,Cicero,"{'latitude': '41.85246131100047', 'longitude': '-87.74546573499964', 'human_address': '{""address"": ""2133 48th Court"", ""city"": ""Cicero"", ""state"": ""IL"", ""zip"": ""60804""}'}",,,4458,,,
Cicero Gas & Food,Ventra Retail Location,4804 W. Madison Street,,Varies,Varies,41.8805065,-87.7455044,Chicago,"{'latitude': '41.8805353730005', 'longitude': '-87.74548037799968', 'human_address': '{""address"": ""4804 Madison Street"", ""city"": ""Chicago"", ""state"": """", ""zip"": ""60644""}'}",32,26,22216,696,23,11
Cicero-Lake Rail Station,CTA Rail Station,4800 W. Lake Street,1-888-YOURCTA,Cash,Purchase new Transit Cards and add value to Transit Cards and Chicago Cards.,41.886519,-87.744698,Chicago,"{'latitude': '41.88660965700046', 'longitude': '-87.74558496799966', 'human_address': '{""address"": ""4800 Lake Street"", ""city"": ""Chicago"", ""state"": ""IL"", ""zip"": ""60644""}'}",32,26,22216,696,23,11
Cicero Roosevelt Currency,Currency Exchange,1209 S. Cicero Avenue,708-656-1954,Varies,"Purchase Chicago Cards, Transit Cards and Passes.",41.902632,-87.745983,Chicago,"{'latitude': '41.90255681800045', 'longitude': '-87.74593581199969', 'human_address': '{""address"": ""1209 Cicero Avenue"", ""city"": ""Chicago"", ""state"": ""IL"", ""zip"": ""60651""}'}",5,26,4299,62,45,4
Citgo Fuel and Minimart,Ventra Retail Location,304 S. Cicero Avenue,,Varies,Varies,42.017756,-87.806079,Chicago,"{'latitude': '41.876580455000465', 'longitude': '-87.74513057899969', 'human_address': '{""address"": ""304 Cicero Avenue"", ""city"": ""Chicago"", ""state"": """", ""zip"": ""60644""}'}",32,26,22216,69,23,36
